{"type":"FeatureCollection","totalFeatures":371,"features":[{"type":"Feature","id":"sv_fc_poi_govt_building.fid--3786de59_170540c0e31_4e82","geometry":{"type":"Point","coordinates":[3.3034,6.6245]},"geometry_name":"geom","properties":{"geometry_type":"POINT","latitude":6.624465846238088,"longitude":3.3033581110902226,"global_id":"beeed491-8904-4347-93e1-a8844e93535d","name":"NYSC Camp Lagos State","alt_name":null,"ward_code":"LASAGG04","ward_name":"Isale Odo/Ayige","lga_code":"25001","lga_name":"Agege","state_code":"LA","state_name":"Lagos"}},{"type":"Feature","id":"sv_fc_poi_govt_building.fid--3786de59_170540c0e31_4e83","geometry":{"type":"Point","coordinates":[3.3187,6.6099]},"geometry_name":"geom","properties":{"geometry_type":"POINT","latitude":6.6099137577434615,"longitude":3.3186991910949875,"global_id":"dcf52645-6581-42e9-abfe-7aa58925ff49","name":"Lagos State Library Board Agege","alt_name":null,"ward_code":"LASAGG05","ward_name":"Isale Oja","lga_code":"25001","lga_name":"Agege","state_code":"LA","state_name":"Lagos"}},{"type":"Feature","id":"sv_fc_poi_govt_building.fid--3786de59_170540c0e31_4e84","geometry":{"type":"Point","coordinates":[3.3257,6.6259]},"geometry_name":"geom","properties":{"geometry_type":"POINT","latitude":6.6259004229457865,"longitude":3.325749309482977,"global_id":"f21ccc72-bc80-4153-ae3d-73fc0f9af9c3","name":"Lagos State Government Education District 1","alt_name":null,"ward_code":"LASAGG06","ward_name":"Keke","lga_code":"25001","lga_name":"Agege","state_code":"LA","state_name":"Lagos"}},{"type":"Feature","id":"sv_fc_poi_govt_building.fid--3786de59_170540c0e31_4e85","geometry":{"type":"Point","coordinates":[3.3317,6.6248]},"geometry_name":"geom","properties":{"geometry_type":"POINT","latitude":6.624762223162749,"longitude":3.3316879169449134,"global_id":"3b3a014a-2956-4eaa-87c7-ca0fa94ee829","name":"Agege Local Government Secretariat","alt_name":null,"ward_code":"LASAGG06","ward_name":"Keke","lga_code":"25001","lga_name":"Agege","state_code":"LA","state_name":"Lagos"}},{"type":"Feature","id":"sv_fc_poi_govt_building.fid--3786de59_170540c0e31_4e86","geometry":{"type":"Point","coordinates":[3.3254,6.6255]},"geometry_name":"geom","properties":{"geometry_type":"POINT","latitude":6.625473528616424,"longitude":3.3254402859659535,"global_id":"3705b0c7-1388-44d9-99fc-9fd28c6747cd","name":"Lagos State Ministry Of Works and Infrastructure","alt_name":null,"ward_code":"LASAGG06","ward_name":"Keke","lga_code":"25001","lga_name":"Agege","state_code":"LA","state_name":"Lagos"}},{"type":"Feature","id":"sv_fc_poi_govt_building.fid--3786de59_170540c0e31_4e87","geometry":{"type":"Point","coordinates":[3.3178,6.6293]},"geometry_name":"geom","properties":{"geometry_type":"POINT","latitude":6.629345760180953,"longitude":3.3177699242426795,"global_id":"7ba56fb3-c68b-4138-b238-854f835777c5","name":"Lagos State Internal Revenue Service Agege Central Mini Tax Station","alt_name":null,"ward_code":"LASAGG07","ward_name":"Okekoto","lga_code":"25001","lga_name":"Agege","state_code":"LA","state_name":"Lagos"}},{"type":"Feature","id":"sv_fc_poi_govt_building.fid--3786de59_170540c0e31_4e88","geometry":{"type":"Point","coordinates":[3.3047,6.6244]},"geometry_name":"geom","properties":{"geometry_type":"POINT","latitude":6.624434392236734,"longitude":3.304676446869876,"global_id":"6748d503-10ec-4681-88db-5be900c171e6","name":"Lagos State Scholarship Board","alt_name":null,"ward_code":"LASAGG09","ward_name":"Oyewole/Alaagba","lga_code":"25001","lga_name":"Agege","state_code":"LA","state_name":"Lagos"}},{"type":"Feature","id":"sv_fc_poi_govt_building.fid--3786de59_170540c0e31_4e89","geometry":{"type":"Point","coordinates":[3.3153,6.6424]},"geometry_name":"geom","properties":{"geometry_type":"POINT","latitude":6.6424034317336,"longitude":3.315277197080893,"global_id":"410a5153-3975-43bf-80e7-a7fab2da0e72","name":"National Union Of Road Transport Workers Lagos State Council Secretariat","alt_name":null,"ward_code":"LASAGG12","ward_name":"Powerline/Oko-Oba","lga_code":"25001","lga_name":"Agege","state_code":"LA","state_name":"Lagos"}},{"type":"Feature","id":"sv_fc_poi_govt_building.fid--3786de59_170540c0e31_4e8a","geometry":{"type":"Point","coordinates":[3.3442,6.456]},"geometry_name":"geom","properties":{"geometry_type":"POINT","latitude":6.455995136852544,"longitude":3.344185186712209,"global_id":"a7edbd88-644b-4889-be84-c2be9a6ce601","name":"Ajeromi Ifelodun Local Government Secretariat","alt_name":null,"ward_code":"LASATO01","ward_name":"Aiyetoro","lga_code":"25002","lga_name":"Ajeromi/Ifelodun","state_code":"LA","state_name":"Lagos"}},{"type":"Feature","id":"sv_fc_poi_govt_building.fid--3786de59_170540c0e31_4e8b","geometry":{"type":"Point","coordinates":[3.3443,6.4555]},"geometry_name":"geom","properties":{"geometry_type":"POINT","latitude":6.455533650849773,"longitude":3.3443101928540435,"global_id":"cd4f3ee3-36f8-4973-b74d-d16e741d1275","name":"Ajeromi Police Station","alt_name":null,"ward_code":"LASATO02","ward_name":"Ajegunle","lga_code":"25002","lga_name":"Ajeromi/Ifelodun","state_code":"LA","state_name":"Lagos"}},{"type":"Feature","id":"sv_fc_poi_govt_building.fid--3786de59_170540c0e31_4e8c","geometry":{"type":"Point","coordinates":[3.341,6.4651]},"geometry_name":"geom","properties":{"geometry_type":"POINT","latitude":6.465145835636674,"longitude":3.340991143060942,"global_id":"76692468-e986-48ff-86a1-92ae601ca712","name":"Amukoko Secretariat","alt_name":null,"ward_code":"LASATO05","ward_name":"Amukoko","lga_code":"25002","lga_name":"Ajeromi/Ifelodun","state_code":"LA","state_name":"Lagos"}},{"type":"Feature","id":"sv_fc_poi_govt_building.fid--3786de59_170540c0e31_4e8d","geometry":{"type":"Point","coordinates":[3.3478,6.4664]},"geometry_name":"geom","properties":{"geometry_type":"POINT","latitude":6.466356864853739,"longitude":3.3478122202860545,"global_id":"7a970200-b612-416f-8f52-d178c63e7f9b","name":"Amukoko Police Station","alt_name":null,"ward_code":"LASATO05","ward_name":"Amukoko","lga_code":"25002","lga_name":"Ajeromi/Ifelodun","state_code":"LA","state_name":"Lagos"}},{"type":"Feature","id":"sv_fc_poi_govt_building.fid--3786de59_170540c0e31_4e8e","geometry":{"type":"Point","coordinates":[3.3343,6.455]},"geometry_name":"geom","properties":{"geometry_type":"POINT","latitude":6.454997291728497,"longitude":3.3342631370750375,"global_id":"ca588af7-ab84-4155-9ba7-db83d138b942","name":"Ajegunle Magistrate Court","alt_name":null,"ward_code":"LASATO07","ward_name":"Awodi-Ora","lga_code":"25002","lga_name":"Ajeromi/Ifelodun","state_code":"LA","state_name":"Lagos"}},{"type":"Feature","id":"sv_fc_poi_govt_building.fid--3786de59_170540c0e31_4e8f","geometry":{"type":"Point","coordinates":[3.3523,6.4669]},"geometry_name":"geom","properties":{"geometry_type":"POINT","latitude":6.466937521475161,"longitude":3.3522929534337464,"global_id":"1b8c6d30-964a-43e8-ad54-5d0a78ce90e6","name":"Modern Library Alli Do Go Road","alt_name":null,"ward_code":"LASATO12","ward_name":"Oke Oja","lga_code":"25002","lga_name":"Ajeromi/Ifelodun","state_code":"LA","state_name":"Lagos"}},{"type":"Feature","id":"sv_fc_poi_govt_building.fid--3786de59_170540c0e31_4e90","geometry":{"type":"Point","coordinates":[3.3454,6.4393]},"geometry_name":"geom","properties":{"geometry_type":"POINT","latitude":6.4393175418679665,"longitude":3.345377368319415,"global_id":"1c07156f-3142-490b-b816-4d8b229ad620","name":"Lagos State Water Corporation Ajegunle","alt_name":null,"ward_code":"LASATO15","ward_name":"Temidire","lga_code":"25002","lga_name":"Ajeromi/Ifelodun","state_code":"LA","state_name":"Lagos"}},{"type":"Feature","id":"sv_fc_poi_govt_building.fid--3786de59_170540c0e31_4e91","geometry":{"type":"Point","coordinates":[3.3454,6.4402]},"geometry_name":"geom","properties":{"geometry_type":"POINT","latitude":6.440247114378145,"longitude":3.3454228311161516,"global_id":"8a5fa6ce-86aa-433f-973d-33d5238cf1f9","name":"Olodi Apapa Tolu Police Station","alt_name":null,"ward_code":"LASATO15","ward_name":"Temidire","lga_code":"25002","lga_name":"Ajeromi/Ifelodun","state_code":"LA","state_name":"Lagos"}},{"type":"Feature","id":"sv_fc_poi_govt_building.fid--3786de59_170540c0e31_4e92","geometry":{"type":"Point","coordinates":[3.3441,6.4397]},"geometry_name":"geom","properties":{"geometry_type":"POINT","latitude":6.439691120279061,"longitude":3.344132430097552,"global_id":"78c365b2-1862-4d9f-a451-ef6a0e6037ff","name":"Toluene Public Library","alt_name":null,"ward_code":"LASATO15","ward_name":"Temidire","lga_code":"25002","lga_name":"Ajeromi/Ifelodun","state_code":"LA","state_name":"Lagos"}},{"type":"Feature","id":"sv_fc_poi_govt_building.fid--3786de59_170540c0e31_4e93","geometry":{"type":"Point","coordinates":[3.2697,6.6404]},"geometry_name":"geom","properties":{"geometry_type":"POINT","latitude":6.640392215737076,"longitude":3.26967693502928,"global_id":"46afe2bc-4905-4d09-ae70-901a0f4a9e7a","name":"Lagos State Ministry Of Justice Customary Court","alt_name":null,"ward_code":"LASAMO06","ward_name":"Agbelekale","lga_code":"25003","lga_name":"Alimosho","state_code":"LA","state_name":"Lagos"}},{"type":"Feature","id":"sv_fc_poi_govt_building.fid--3786de59_170540c0e31_4e94","geometry":{"type":"Point","coordinates":[3.2807,6.6644]},"geometry_name":"geom","properties":{"geometry_type":"POINT","latitude":6.664359606206511,"longitude":3.2807405826330513,"global_id":"a7572f7b-db95-4e59-b938-97b7cd8362b5","name":"Facco","alt_name":null,"ward_code":"LASAMO06","ward_name":"Agbelekale","lga_code":"25003","lga_name":"Alimosho","state_code":"LA","state_name":"Lagos"}},{"type":"Feature","id":"sv_fc_poi_govt_building.fid--3786de59_170540c0e31_4e95","geometry":{"type":"Point","coordinates":[3.2783,6.6657]},"geometry_name":"geom","properties":{"geometry_type":"POINT","latitude":6.66566846601683,"longitude":3.2782574626213403,"global_id":"d477d0ed-5774-4549-b05c-8551533ab240","name":"Federal Housing Authority","alt_name":null,"ward_code":"LASAMO06","ward_name":"Agbelekale","lga_code":"25003","lga_name":"Alimosho","state_code":"LA","state_name":"Lagos"}},{"type":"Feature","id":"sv_fc_poi_govt_building.fid--3786de59_170540c0e31_4e96","geometry":{"type":"Point","coordinates":[3.2802,6.5314]},"geometry_name":"geom","properties":{"geometry_type":"POINT","latitude":6.531433781199118,"longitude":3.280183645692207,"global_id":"564ede86-f4ac-41ee-acfb-605f8512b15d","name":"Lagos State Water Corporation","alt_name":null,"ward_code":"LASAMO18","ward_name":"Egbe-Agodo","lga_code":"25003","lga_name":"Alimosho","state_code":"LA","state_name":"Lagos"}},{"type":"Feature","id":"sv_fc_poi_govt_building.fid--3786de59_170540c0e31_4e97","geometry":{"type":"Point","coordinates":[3.293,6.5961]},"geometry_name":"geom","properties":{"geometry_type":"POINT","latitude":6.596085788376116,"longitude":3.2930481824853604,"global_id":"cf59a590-f268-4d8c-975d-f57f6a6b51f1","name":"Ministry Of Woman Affairs and Poverty Allevation","alt_name":null,"ward_code":"LASAMO19","ward_name":"Egbeda","lga_code":"25003","lga_name":"Alimosho","state_code":"LA","state_name":"Lagos"}},{"type":"Feature","id":"sv_fc_poi_govt_building.fid--3786de59_170540c0e31_4e98","geometry":{"type":"Point","coordinates":[3.2819,6.5415]},"geometry_name":"geom","properties":{"geometry_type":"POINT","latitude":6.541491300011194,"longitude":3.2818740218598794,"global_id":"a8c408d5-4faf-42c9-9dbb-f138a8a4416f","name":"Ikeja Electric Plc","alt_name":null,"ward_code":"LASAMO20","ward_name":"Egbe-Liasu","lga_code":"25003","lga_name":"Alimosho","state_code":"LA","state_name":"Lagos"}},{"type":"Feature","id":"sv_fc_poi_govt_building.fid--3786de59_170540c0e31_4e99","geometry":{"type":"Point","coordinates":[3.2697,6.5507]},"geometry_name":"geom","properties":{"geometry_type":"POINT","latitude":6.550695570229696,"longitude":3.2696523138863536,"global_id":"31e256f8-67dc-4213-b108-705d491e4e62","name":"Igando-Ikotun Lcda","alt_name":null,"ward_code":"LASAMO20","ward_name":"Egbe-Liasu","lga_code":"25003","lga_name":"Alimosho","state_code":"LA","state_name":"Lagos"}},{"type":"Feature","id":"sv_fc_poi_govt_building.fid--3786de59_170540c0e31_4e9a","geometry":{"type":"Point","coordinates":[3.2511,6.5143]},"geometry_name":"geom","properties":{"geometry_type":"POINT","latitude":6.514332389598755,"longitude":3.2511333107948386,"global_id":"a257235f-fa5c-4c91-be35-cd99031301f7","name":"Lagos State Ministry Of Rural Development Building","alt_name":null,"ward_code":"LASAMO24","ward_name":"Ijegun","lga_code":"25003","lga_name":"Alimosho","state_code":"LA","state_name":"Lagos"}},{"type":"Feature","id":"sv_fc_poi_govt_building.fid--3786de59_170540c0e31_4e9b","geometry":{"type":"Point","coordinates":[3.2261,6.5057]},"geometry_name":"geom","properties":{"geometry_type":"POINT","latitude":6.505660207610041,"longitude":3.2261066366530025,"global_id":"378d1f7f-85ec-4744-abf7-b42d963b2633","name":"Lagos State Ministry Of Rural Development","alt_name":null,"ward_code":"LASAMO24","ward_name":"Ijegun","lga_code":"25003","lga_name":"Alimosho","state_code":"LA","state_name":"Lagos"}},{"type":"Feature","id":"sv_fc_poi_govt_building.fid--3786de59_170540c0e31_4e9c","geometry":{"type":"Point","coordinates":[3.2495,6.5564]},"geometry_name":"geom","properties":{"geometry_type":"POINT","latitude":6.556361304618601,"longitude":3.2494560086096276,"global_id":"94cabf65-b59e-42aa-9c04-d8ca0315a14b","name":"Lagos State Ministry Of Special Duties Emergency Management Agency","alt_name":null,"ward_code":"LASAMO25","ward_name":"Ikotun","lga_code":"25003","lga_name":"Alimosho","state_code":"LA","state_name":"Lagos"}},{"type":"Feature","id":"sv_fc_poi_govt_building.fid--3786de59_170540c0e31_4e9d","geometry":{"type":"Point","coordinates":[3.2517,6.5654]},"geometry_name":"geom","properties":{"geometry_type":"POINT","latitude":6.5653862969065635,"longitude":3.2516877708089322,"global_id":"508ab661-f8ce-46ce-9025-56a211b2d35b","name":"Lasg Ministry Of Special Duties Job Opportunity Center","alt_name":null,"ward_code":"LASAMO25","ward_name":"Ikotun","lga_code":"25003","lga_name":"Alimosho","state_code":"LA","state_name":"Lagos"}},{"type":"Feature","id":"sv_fc_poi_govt_building.fid--3786de59_170540c0e31_4e9e","geometry":{"type":"Point","coordinates":[3.2542,6.6049]},"geometry_name":"geom","properties":{"geometry_type":"POINT","latitude":6.604924652535409,"longitude":3.254160992546303,"global_id":"025459a3-7e7d-4343-8fa7-3d45d6d63268","name":"Lagos State Government Vision Screening Site","alt_name":null,"ward_code":"LASAMO26","ward_name":"Ipaja","lga_code":"25003","lga_name":"Alimosho","state_code":"LA","state_name":"Lagos"}},{"type":"Feature","id":"sv_fc_poi_govt_building.fid--3786de59_170540c0e31_4e9f","geometry":{"type":"Point","coordinates":[3.2531,6.6085]},"geometry_name":"geom","properties":{"geometry_type":"POINT","latitude":6.608533947641789,"longitude":3.253058864080893,"global_id":"ef132c7d-fd39-4467-83a5-804ccdeab818","name":"Lagos State Government Ministry Of Transportation Vehicle Inspection Office","alt_name":null,"ward_code":"LASAMO26","ward_name":"Ipaja","lga_code":"25003","lga_name":"Alimosho","state_code":"LA","state_name":"Lagos"}},{"type":"Feature","id":"sv_fc_poi_govt_building.fid--3786de59_170540c0e31_4ea0","geometry":{"type":"Point","coordinates":[3.2779,6.5157]},"geometry_name":"geom","properties":{"geometry_type":"POINT","latitude":6.515692460619697,"longitude":3.277868719708089,"global_id":"fc07e13c-b749-4e9d-9256-d66288eac60f","name":"Isheri Oshun Water Works","alt_name":null,"ward_code":"LASAMO27","ward_name":"Isheri Oshun","lga_code":"25003","lga_name":"Alimosho","state_code":"LA","state_name":"Lagos"}},{"type":"Feature","id":"sv_fc_poi_govt_building.fid--3786de59_170540c0e31_4ea1","geometry":{"type":"Point","coordinates":[3.2823,6.5777]},"geometry_name":"geom","properties":{"geometry_type":"POINT","latitude":6.5777304944659,"longitude":3.2822609461359797,"global_id":"1f119a36-0fe7-4de9-8929-706677773e2e","name":"Federal Inland Revenue Services","alt_name":null,"ward_code":"LASAMO28","ward_name":"Isheri-Olofin","lga_code":"25003","lga_name":"Alimosho","state_code":"LA","state_name":"Lagos"}},{"type":"Feature","id":"sv_fc_poi_govt_building.fid--3786de59_170540c0e31_4ea2","geometry":{"type":"Point","coordinates":[3.2807,6.5768]},"geometry_name":"geom","properties":{"geometry_type":"POINT","latitude":6.576819751820338,"longitude":3.280655287745607,"global_id":"ccaf7500-590b-4194-8f2c-c1a87cc725c4","name":"Egbe Idimu Lcda","alt_name":null,"ward_code":"LASAMO28","ward_name":"Isheri-Olofin","lga_code":"25003","lga_name":"Alimosho","state_code":"LA","state_name":"Lagos"}},{"type":"Feature","id":"sv_fc_poi_govt_building.fid--3786de59_170540c0e31_4ea3","geometry":{"type":"Point","coordinates":[3.2725,6.5783]},"geometry_name":"geom","properties":{"geometry_type":"POINT","latitude":6.578304229534327,"longitude":3.2724903823459064,"global_id":"5217f505-6cc3-4dd2-9522-086e8c2a8956","name":"Federal Ministry Of Women Affair and Social Development","alt_name":null,"ward_code":"LASAMO28","ward_name":"Isheri-Olofin","lga_code":"25003","lga_name":"Alimosho","state_code":"LA","state_name":"Lagos"}},{"type":"Feature","id":"sv_fc_poi_govt_building.fid--3786de59_170540c0e31_4ea4","geometry":{"type":"Point","coordinates":[3.2594,6.5779]},"geometry_name":"geom","properties":{"geometry_type":"POINT","latitude":6.5778797147901304,"longitude":3.2594172728382134,"global_id":"93739bcd-b5a1-43b3-9308-a6ee3c209900","name":"Lagos State Government Commercial Agricultural Development Program","alt_name":null,"ward_code":"LASAMO28","ward_name":"Isheri-Olofin","lga_code":"25003","lga_name":"Alimosho","state_code":"LA","state_name":"Lagos"}},{"type":"Feature","id":"sv_fc_poi_govt_building.fid--3786de59_170540c0e31_4ea5","geometry":{"type":"Point","coordinates":[3.2755,6.6053]},"geometry_name":"geom","properties":{"geometry_type":"POINT","latitude":6.605309388870301,"longitude":3.275488621745608,"global_id":"2f7218d9-e0a8-421a-b00f-8bd1f9eb9e95","name":"The Nigeria Police Area P Command Headquarters","alt_name":null,"ward_code":"LASAMO29","ward_name":"Mosan/Akinoggun","lga_code":"25003","lga_name":"Alimosho","state_code":"LA","state_name":"Lagos"}},{"type":"Feature","id":"sv_fc_poi_govt_building.fid--3786de59_170540c0e31_4ea6","geometry":{"type":"Point","coordinates":[3.285,6.61]},"geometry_name":"geom","properties":{"geometry_type":"POINT","latitude":6.609976934431133,"longitude":3.2850436671559304,"global_id":"70e29d9a-f1f8-4045-8f74-2e1ee58fea09","name":"Lagos State Library Board","alt_name":null,"ward_code":"LASAMO29","ward_name":"Mosan/Akinoggun","lga_code":"25003","lga_name":"Alimosho","state_code":"LA","state_name":"Lagos"}},{"type":"Feature","id":"sv_fc_poi_govt_building.fid--3786de59_170540c0e31_4ea7","geometry":{"type":"Point","coordinates":[3.2895,6.6115]},"geometry_name":"geom","properties":{"geometry_type":"POINT","latitude":6.611478946364923,"longitude":3.289460612980049,"global_id":"ae961de2-9538-4656-9ab3-5a6ed8315f13","name":"Mosan Okunola Local Government Concil","alt_name":null,"ward_code":"LASAMO29","ward_name":"Mosan/Akinoggun","lga_code":"25003","lga_name":"Alimosho","state_code":"LA","state_name":"Lagos"}},{"type":"Feature","id":"sv_fc_poi_govt_building.fid--3786de59_170540c0e31_4ea8","geometry":{"type":"Point","coordinates":[3.3048,6.585]},"geometry_name":"geom","properties":{"geometry_type":"POINT","latitude":6.585038333,"longitude":3.304751667,"global_id":"6c711c3c-d19a-4648-b494-a8257e7f6173","name":"Lagos State Park and Garden","alt_name":null,"ward_code":"LASAMO30","ward_name":"Oguntade/Bameke","lga_code":"25003","lga_name":"Alimosho","state_code":"LA","state_name":"Lagos"}},{"type":"Feature","id":"sv_fc_poi_govt_building.fid--3786de59_170540c0e31_4ea9","geometry":{"type":"Point","coordinates":[3.2872,6.5892]},"geometry_name":"geom","properties":{"geometry_type":"POINT","latitude":6.58918561947105,"longitude":3.2871661359191067,"global_id":"cd4b0091-b758-4e12-9503-4e859bbdaaef","name":"Lagos State Government Land Use Charge Office","alt_name":null,"ward_code":"LASAMO33","ward_name":"Okunola","lga_code":"25003","lga_name":"Alimosho","state_code":"LA","state_name":"Lagos"}},{"type":"Feature","id":"sv_fc_poi_govt_building.fid--3786de59_170540c0e31_4eaa","geometry":{"type":"Point","coordinates":[3.3088,6.6055]},"geometry_name":"geom","properties":{"geometry_type":"POINT","latitude":6.605492419343302,"longitude":3.3087770144396025,"global_id":"8d211ca3-d1ac-4bb1-9e8a-941af81c3dfb","name":"Alimosho Local Government","alt_name":null,"ward_code":"LASAMO34","ward_name":"Omituntun-Olori","lga_code":"25003","lga_name":"Alimosho","state_code":"LA","state_name":"Lagos"}},{"type":"Feature","id":"sv_fc_poi_govt_building.fid--3786de59_170540c0e31_4eab","geometry":{"type":"Point","coordinates":[3.3073,6.6078]},"geometry_name":"geom","properties":{"geometry_type":"POINT","latitude":6.607798065071707,"longitude":3.307253840875732,"global_id":"fa14d625-7606-47d5-93db-e482b418bf62","name":"Ministry Of Youth Sports and Social Develpment","alt_name":null,"ward_code":"LASAMO34","ward_name":"Omituntun-Olori","lga_code":"25003","lga_name":"Alimosho","state_code":"LA","state_name":"Lagos"}},{"type":"Feature","id":"sv_fc_poi_govt_building.fid--3786de59_170540c0e31_4eac","geometry":{"type":"Point","coordinates":[3.2467,6.4574]},"geometry_name":"geom","properties":{"geometry_type":"POINT","latitude":6.457397899412247,"longitude":3.2466508628153345,"global_id":"a0c57afd-7d2d-407f-97bc-7e7d51951bc8","name":"Market Secretariat","alt_name":null,"ward_code":"LASAON01","ward_name":"Abule Osun Onireke","lga_code":"25004","lga_name":"Amuwo Odofin","state_code":"LA","state_name":"Lagos"}},{"type":"Feature","id":"sv_fc_poi_govt_building.fid--3786de59_170540c0e31_4ead","geometry":{"type":"Point","coordinates":[3.2565,6.4482]},"geometry_name":"geom","properties":{"geometry_type":"POINT","latitude":6.448209808855451,"longitude":3.256520514017568,"global_id":"ceb7af5d-5c7c-4520-9cf6-f87f9a853b62","name":"Eko Electricity Distribution Company","alt_name":null,"ward_code":"LASAON01","ward_name":"Abule Osun Onireke","lga_code":"25004","lga_name":"Amuwo Odofin","state_code":"LA","state_name":"Lagos"}},{"type":"Feature","id":"sv_fc_poi_govt_building.fid--3786de59_170540c0e31_4eae","geometry":{"type":"Point","coordinates":[3.2605,6.4488]},"geometry_name":"geom","properties":{"geometry_type":"POINT","latitude":6.448817312941611,"longitude":3.2605407341476917,"global_id":"f848fe89-f73b-498b-8338-6e2c08c74cb1","name":"Oriade Local Council Development Area","alt_name":null,"ward_code":"LASAON01","ward_name":"Abule Osun Onireke","lga_code":"25004","lga_name":"Amuwo Odofin","state_code":"LA","state_name":"Lagos"}},{"type":"Feature","id":"sv_fc_poi_govt_building.fid--3786de59_170540c0e31_4eaf","geometry":{"type":"Point","coordinates":[3.299,6.466]},"geometry_name":"geom","properties":{"geometry_type":"POINT","latitude":6.466049050054324,"longitude":3.2990119476037725,"global_id":"59871698-4af3-4242-8e15-6e39cdae9d3b","name":"Federal Inland Revenue Service","alt_name":null,"ward_code":"LASAON07","ward_name":"Ifelodun","lga_code":"25004","lga_name":"Amuwo Odofin","state_code":"LA","state_name":"Lagos"}},{"type":"Feature","id":"sv_fc_poi_govt_building.fid--3786de59_170540c0e31_4eb0","geometry":{"type":"Point","coordinates":[3.2922,6.4619]},"geometry_name":"geom","properties":{"geometry_type":"POINT","latitude":6.4619467,"longitude":3.292165,"global_id":"a17f5056-9126-4d28-afdd-7e6c6338b471","name":"Amuwo Odofin House Of Assembly Constituency 1","alt_name":null,"ward_code":"LASAON07","ward_name":"Ifelodun","lga_code":"25004","lga_name":"Amuwo Odofin","state_code":"LA","state_name":"Lagos"}},{"type":"Feature","id":"sv_fc_poi_govt_building.fid--3786de59_170540c0e31_4eb1","geometry":{"type":"Point","coordinates":[3.2932,6.4634]},"geometry_name":"geom","properties":{"geometry_type":"POINT","latitude":6.463395,"longitude":3.2932133,"global_id":"e2413f46-a36c-4ae6-989e-735b8586c6a6","name":"Nigeria Immigration Service Or Passport Office","alt_name":null,"ward_code":"LASAON07","ward_name":"Ifelodun","lga_code":"25004","lga_name":"Amuwo Odofin","state_code":"LA","state_name":"Lagos"}},{"type":"Feature","id":"sv_fc_poi_govt_building.fid--3786de59_170540c0e31_4eb2","geometry":{"type":"Point","coordinates":[3.3018,6.4619]},"geometry_name":"geom","properties":{"geometry_type":"POINT","latitude":6.461916274733775,"longitude":3.301836093288438,"global_id":"b93a4dc5-1a5d-4c38-b283-64074d53785f","name":"Independent National Electoral Commission","alt_name":null,"ward_code":"LASAON07","ward_name":"Ifelodun","lga_code":"25004","lga_name":"Amuwo Odofin","state_code":"LA","state_name":"Lagos"}},{"type":"Feature","id":"sv_fc_poi_govt_building.fid--3786de59_170540c0e31_4eb3","geometry":{"type":"Point","coordinates":[3.3134,6.4442]},"geometry_name":"geom","properties":{"geometry_type":"POINT","latitude":6.44418340115154,"longitude":3.3133924554795033,"global_id":"21d94a5d-bc48-464f-a66c-4bdf279d57f8","name":"Nigeria Maritime Development Center","alt_name":null,"ward_code":"LASAON11","ward_name":"Kirikiri And Environ","lga_code":"25004","lga_name":"Amuwo Odofin","state_code":"LA","state_name":"Lagos"}},{"type":"Feature","id":"sv_fc_poi_govt_building.fid--3786de59_170540c0e31_4eb4","geometry":{"type":"Point","coordinates":[3.2911,6.4572]},"geometry_name":"geom","properties":{"geometry_type":"POINT","latitude":6.45716146335117,"longitude":3.2911217773728043,"global_id":"776c442b-e454-4213-a1f6-ff397150a7d6","name":"Amuwo Kuje Customary Court","alt_name":null,"ward_code":"LASAON12","ward_name":"Kuje","lga_code":"25004","lga_name":"Amuwo Odofin","state_code":"LA","state_name":"Lagos"}},{"type":"Feature","id":"sv_fc_poi_govt_building.fid--3786de59_170540c0e31_4eb5","geometry":{"type":"Point","coordinates":[3.3085,6.4645]},"geometry_name":"geom","properties":{"geometry_type":"POINT","latitude":6.464485412928664,"longitude":3.3084998173587086,"global_id":"73a3d7e5-00e9-47a9-b58c-eb963a04cae4","name":"Lagos State New Town Development Authority  Zonal Office Jakande Estate","alt_name":null,"ward_code":"LASAON13","ward_name":"Odofin","lga_code":"25004","lga_name":"Amuwo Odofin","state_code":"LA","state_name":"Lagos"}},{"type":"Feature","id":"sv_fc_poi_govt_building.fid--3786de59_170540c0e31_4eb6","geometry":{"type":"Point","coordinates":[3.3599,6.4662]},"geometry_name":"geom","properties":{"geometry_type":"POINT","latitude":6.466224041058754,"longitude":3.3598995153294298,"global_id":"93204274-be73-4e31-ac95-1fbf443364b6","name":"Apapa Lganmu Local Council Office","alt_name":null,"ward_code":"LASAPA01","ward_name":"Abete","lga_code":"25005","lga_name":"Apapa","state_code":"LA","state_name":"Lagos"}},{"type":"Feature","id":"sv_fc_poi_govt_building.fid--3786de59_170540c0e31_4eb7","geometry":{"type":"Point","coordinates":[3.3782,6.4423]},"geometry_name":"geom","properties":{"geometry_type":"POINT","latitude":6.44228653047211,"longitude":3.3782047183962285,"global_id":"fa7a056f-d69d-44fd-89fe-bf0ac0b5f20e","name":"Nigerian Port Authority Apapa","alt_name":null,"ward_code":"LASAPA02","ward_name":"Abraham Adesanya","lga_code":"25005","lga_name":"Apapa","state_code":"LA","state_name":"Lagos"}},{"type":"Feature","id":"sv_fc_poi_govt_building.fid--3786de59_170540c0e31_4eb8","geometry":{"type":"Point","coordinates":[3.3583,6.4366]},"geometry_name":"geom","properties":{"geometry_type":"POINT","latitude":6.436621092345105,"longitude":3.358299369374099,"global_id":"4c7b4ab4-7819-4234-bf71-5f320d6d85fc","name":"Apapa Port","alt_name":null,"ward_code":"LASAPA02","ward_name":"Abraham Adesanya","lga_code":"25005","lga_name":"Apapa","state_code":"LA","state_name":"Lagos"}},{"type":"Feature","id":"sv_fc_poi_govt_building.fid--3786de59_170540c0e31_4eb9","geometry":{"type":"Point","coordinates":[3.3684,6.4369]},"geometry_name":"geom","properties":{"geometry_type":"POINT","latitude":6.436937015313933,"longitude":3.3684048627690317,"global_id":"9af419d6-09ac-4a79-88fc-9ca3aa667c4a","name":"Lagos State Internal Revenue Service Apapa Local Tax Station","alt_name":null,"ward_code":"LASAPA02","ward_name":"Abraham Adesanya","lga_code":"25005","lga_name":"Apapa","state_code":"LA","state_name":"Lagos"}},{"type":"Feature","id":"sv_fc_poi_govt_building.fid--3786de59_170540c0e31_4eba","geometry":{"type":"Point","coordinates":[3.3696,6.4444]},"geometry_name":"geom","properties":{"geometry_type":"POINT","latitude":6.4443801607290165,"longitude":3.369600160436129,"global_id":"17442668-7530-48bf-bea9-77328d5623f5","name":"Soroptimist InternLibrary Ofapapa","alt_name":null,"ward_code":"LASAPA02","ward_name":"Abraham Adesanya","lga_code":"25005","lga_name":"Apapa","state_code":"LA","state_name":"Lagos"}},{"type":"Feature","id":"sv_fc_poi_govt_building.fid--3786de59_170540c0e31_4ebb","geometry":{"type":"Point","coordinates":[3.3767,6.4418]},"geometry_name":"geom","properties":{"geometry_type":"POINT","latitude":6.44182568611238,"longitude":3.3767013167807436,"global_id":"eddc4845-5ef1-4ed2-982f-18f95f5dd867","name":"Nigeria Custom ServiceApaps","alt_name":null,"ward_code":"LASAPA02","ward_name":"Abraham Adesanya","lga_code":"25005","lga_name":"Apapa","state_code":"LA","state_name":"Lagos"}},{"type":"Feature","id":"sv_fc_poi_govt_building.fid--3786de59_170540c0e31_4ebc","geometry":{"type":"Point","coordinates":[3.3752,6.4413]},"geometry_name":"geom","properties":{"geometry_type":"POINT","latitude":6.441252284030079,"longitude":3.3752315519741938,"global_id":"1774035e-d2b3-489b-932f-11c9fc0cde3f","name":"Nimasa","alt_name":null,"ward_code":"LASAPA02","ward_name":"Abraham Adesanya","lga_code":"25005","lga_name":"Apapa","state_code":"LA","state_name":"Lagos"}},{"type":"Feature","id":"sv_fc_poi_govt_building.fid--3786de59_170540c0e31_4ebd","geometry":{"type":"Point","coordinates":[3.3775,6.4403]},"geometry_name":"geom","properties":{"geometry_type":"POINT","latitude":6.440259973261499,"longitude":3.3774573868640205,"global_id":"74b71aca-3557-4f82-a9be-654abe8b0f45","name":"Lagos and Niger Shipping Agencies Ltd Apapa","alt_name":null,"ward_code":"LASAPA02","ward_name":"Abraham Adesanya","lga_code":"25005","lga_name":"Apapa","state_code":"LA","state_name":"Lagos"}},{"type":"Feature","id":"sv_fc_poi_govt_building.fid--3786de59_170540c0e31_4ebe","geometry":{"type":"Point","coordinates":[3.3675,6.4375]},"geometry_name":"geom","properties":{"geometry_type":"POINT","latitude":6.43752,"longitude":3.36751,"global_id":"02f04714-712e-4b57-8c93-6125725982cb","name":"Apapa Local Government Office","alt_name":null,"ward_code":"LASAPA02","ward_name":"Abraham Adesanya","lga_code":"25005","lga_name":"Apapa","state_code":"LA","state_name":"Lagos"}},{"type":"Feature","id":"sv_fc_poi_govt_building.fid--3786de59_170540c0e31_4ebf","geometry":{"type":"Point","coordinates":[3.3428,6.4753]},"geometry_name":"geom","properties":{"geometry_type":"POINT","latitude":6.475303333,"longitude":3.342826667,"global_id":"89883a49-c2b4-40ec-b7be-f43fe56ba43b","name":"Lagos State Ministry of Transport Iganmu Mechanic Village","alt_name":null,"ward_code":"LASAPA03","ward_name":"Alafia","lga_code":"25005","lga_name":"Apapa","state_code":"LA","state_name":"Lagos"}},{"type":"Feature","id":"sv_fc_poi_govt_building.fid--3786de59_170540c0e31_4ec0","geometry":{"type":"Point","coordinates":[3.3624,6.4516]},"geometry_name":"geom","properties":{"geometry_type":"POINT","latitude":6.4515745920446275,"longitude":3.362414855627197,"global_id":"a0dcb8f1-6e85-4f8f-908b-e39782184d92","name":"Federal Govt Press North Avenue Apapa","alt_name":null,"ward_code":"LASAPA05","ward_name":"Apapa","lga_code":"25005","lga_name":"Apapa","state_code":"LA","state_name":"Lagos"}},{"type":"Feature","id":"sv_fc_poi_govt_building.fid--3786de59_170540c0e31_4ec1","geometry":{"type":"Point","coordinates":[3.3568,6.4415]},"geometry_name":"geom","properties":{"geometry_type":"POINT","latitude":6.441485363225263,"longitude":3.3567945607397522,"global_id":"1b8968b5-7c58-4032-af71-8c2086da2a05","name":"Lagos State Wharf Landing Fees Collecting Authority","alt_name":null,"ward_code":"LASAPA05","ward_name":"Apapa","lga_code":"25005","lga_name":"Apapa","state_code":"LA","state_name":"Lagos"}},{"type":"Feature","id":"sv_fc_poi_govt_building.fid--3786de59_170540c0e31_4ec2","geometry":{"type":"Point","coordinates":[3.3583,6.4553]},"geometry_name":"geom","properties":{"geometry_type":"POINT","latitude":6.455282155032436,"longitude":3.358290611688785,"global_id":"b7170e58-c0f9-4d3b-b6ff-0e835c9deffb","name":"Nigerian Army ContainmentArakanApapa","alt_name":null,"ward_code":"LASAPA05","ward_name":"Apapa","lga_code":"25005","lga_name":"Apapa","state_code":"LA","state_name":"Lagos"}},{"type":"Feature","id":"sv_fc_poi_govt_building.fid--3786de59_170540c0e31_4ec3","geometry":{"type":"Point","coordinates":[3.3609,6.4525]},"geometry_name":"geom","properties":{"geometry_type":"POINT","latitude":6.452548163267538,"longitude":3.3609000686154844,"global_id":"3c9305f1-225d-4f62-a36f-e4dba6b73f2a","name":"Lagos Ministry Of The Environment Apapa","alt_name":null,"ward_code":"LASAPA05","ward_name":"Apapa","lga_code":"25005","lga_name":"Apapa","state_code":"LA","state_name":"Lagos"}},{"type":"Feature","id":"sv_fc_poi_govt_building.fid--3786de59_170540c0e31_4ec4","geometry":{"type":"Point","coordinates":[3.3778,6.4669]},"geometry_name":"geom","properties":{"geometry_type":"POINT","latitude":6.466871777622435,"longitude":3.377821757820645,"global_id":"69e87c41-2380-4190-aaa7-c29b36e6a858","name":"Naptin Ijora","alt_name":null,"ward_code":"LASAPA08","ward_name":"Ijora","lga_code":"25005","lga_name":"Apapa","state_code":"LA","state_name":"Lagos"}},{"type":"Feature","id":"sv_fc_poi_govt_building.fid--3786de59_170540c0e31_4ec5","geometry":{"type":"Point","coordinates":[3.3767,6.4691]},"geometry_name":"geom","properties":{"geometry_type":"POINT","latitude":6.469114412538332,"longitude":3.3767116144478417,"global_id":"f3d27112-e196-4c6f-800b-f83a960fb1af","name":"Federal Ministry Of Trade and InvestmentIjora Olopa","alt_name":null,"ward_code":"LASAPA08","ward_name":"Ijora","lga_code":"25005","lga_name":"Apapa","state_code":"LA","state_name":"Lagos"}},{"type":"Feature","id":"sv_fc_poi_govt_building.fid--3786de59_170540c0e31_4ec6","geometry":{"type":"Point","coordinates":[3.3744,6.4678]},"geometry_name":"geom","properties":{"geometry_type":"POINT","latitude":6.4678320465165475,"longitude":3.3743511154936,"global_id":"b0b7e1d9-cae4-4027-9c3a-e18d28e73e19","name":"Lagos State Water Corporation","alt_name":null,"ward_code":"LASAPA08","ward_name":"Ijora","lga_code":"25005","lga_name":"Apapa","state_code":"LA","state_name":"Lagos"}},{"type":"Feature","id":"sv_fc_poi_govt_building.fid--3786de59_170540c0e31_4ec7","geometry":{"type":"Point","coordinates":[3.3767,6.4686]},"geometry_name":"geom","properties":{"geometry_type":"POINT","latitude":6.468583333,"longitude":3.376696667,"global_id":"592b89db-bd3a-4295-9722-c9c5aa51fb28","name":"Federal Min Of WorksIjora","alt_name":null,"ward_code":"LASAPA08","ward_name":"Ijora","lga_code":"25005","lga_name":"Apapa","state_code":"LA","state_name":"Lagos"}},{"type":"Feature","id":"sv_fc_poi_govt_building.fid--3786de59_170540c0e31_4ec8","geometry":{"type":"Point","coordinates":[3.3609,6.4563]},"geometry_name":"geom","properties":{"geometry_type":"POINT","latitude":6.45626530490364,"longitude":3.360917924086749,"global_id":"000cb945-a9b5-47f5-ae89-cb06dfff38f6","name":"NAFDAC","alt_name":null,"ward_code":"LASAPA09","ward_name":"Marine Beach","lga_code":"25005","lga_name":"Apapa","state_code":"LA","state_name":"Lagos"}},{"type":"Feature","id":"sv_fc_poi_govt_building.fid--3786de59_170540c0e31_4ec9","geometry":{"type":"Point","coordinates":[3.3589,6.4562]},"geometry_name":"geom","properties":{"geometry_type":"POINT","latitude":6.456156575340485,"longitude":3.3589378978106694,"global_id":"0bd5c320-dca1-4912-9c09-9508c3aef2f6","name":"Lagos State JudiciaryApapa","alt_name":null,"ward_code":"LASAPA09","ward_name":"Marine Beach","lga_code":"25005","lga_name":"Apapa","state_code":"LA","state_name":"Lagos"}},{"type":"Feature","id":"sv_fc_poi_govt_building.fid--3786de59_170540c0e31_4eca","geometry":{"type":"Point","coordinates":[2.8609,6.4456]},"geometry_name":"geom","properties":{"geometry_type":"POINT","latitude":6.445638844172428,"longitude":2.8609308642368245,"global_id":"bce9f444-280c-470e-8089-9fb588e8cd8b","name":"Iyafin Jetty Water Park","alt_name":null,"ward_code":"LASBDY02","ward_name":"Ajara Topa","lga_code":"25006","lga_name":"Badagry","state_code":"LA","state_name":"Lagos"}},{"type":"Feature","id":"sv_fc_poi_govt_building.fid--3786de59_170540c0e31_4ecb","geometry":{"type":"Point","coordinates":[2.8614,6.4441]},"geometry_name":"geom","properties":{"geometry_type":"POINT","latitude":6.444057958052372,"longitude":2.861423296511167,"global_id":"e139da96-7f3c-4deb-80a7-f3e2ea6bdad1","name":"Lagos State Govt Min Of Environment Wetland Protected Area Yafin Badagry","alt_name":null,"ward_code":"LASBDY02","ward_name":"Ajara Topa","lga_code":"25006","lga_name":"Badagry","state_code":"LA","state_name":"Lagos"}},{"type":"Feature","id":"sv_fc_poi_govt_building.fid--3786de59_170540c0e31_4ecc","geometry":{"type":"Point","coordinates":[2.8641,6.4377]},"geometry_name":"geom","properties":{"geometry_type":"POINT","latitude":6.437658439851608,"longitude":2.8641024304946883,"global_id":"46e18f45-7f1e-4d6e-850f-206560f25543","name":"Cultural Industries Centre","alt_name":null,"ward_code":"LASBDY02","ward_name":"Ajara Topa","lga_code":"25006","lga_name":"Badagry","state_code":"LA","state_name":"Lagos"}},{"type":"Feature","id":"sv_fc_poi_govt_building.fid--3786de59_170540c0e31_4ecd","geometry":{"type":"Point","coordinates":[2.891,6.4292]},"geometry_name":"geom","properties":{"geometry_type":"POINT","latitude":6.429230644236083,"longitude":2.891004732679899,"global_id":"7f68de63-4fb2-482c-a88c-1ea8437c2a81","name":"Badagry Local Government","alt_name":null,"ward_code":"LASBDY02","ward_name":"Ajara Topa","lga_code":"25006","lga_name":"Badagry","state_code":"LA","state_name":"Lagos"}},{"type":"Feature","id":"sv_fc_poi_govt_building.fid--3786de59_170540c0e31_4ece","geometry":{"type":"Point","coordinates":[2.9081,6.4404]},"geometry_name":"geom","properties":{"geometry_type":"POINT","latitude":6.440353568720623,"longitude":2.908111572108437,"global_id":"862b23cb-b556-47f0-aee9-361678e46d1e","name":"Nigeria Civil Defense Service Corps Ibereko","alt_name":null,"ward_code":"LASBDY03","ward_name":"Ajara Vetho","lga_code":"25006","lga_name":"Badagry","state_code":"LA","state_name":"Lagos"}},{"type":"Feature","id":"sv_fc_poi_govt_building.fid--3786de59_170540c0e31_4ecf","geometry":{"type":"Point","coordinates":[2.8476,6.3985]},"geometry_name":"geom","properties":{"geometry_type":"POINT","latitude":6.398473236260041,"longitude":2.8475503401521336,"global_id":"49373acf-3806-4335-a6cb-cdd3619aa4f9","name":"Federal Ministry Of Workstraining Centre","alt_name":null,"ward_code":"LASBDY05","ward_name":"Akoro","lga_code":"25006","lga_name":"Badagry","state_code":"LA","state_name":"Lagos"}},{"type":"Feature","id":"sv_fc_poi_govt_building.fid--3786de59_170540c0e31_4ed0","geometry":{"type":"Point","coordinates":[2.8458,6.3977]},"geometry_name":"geom","properties":{"geometry_type":"POINT","latitude":6.397689663460435,"longitude":2.8457584086116867,"global_id":"5eb48626-506e-4d17-b3bd-6dd4584ed589","name":"Federal Ministry Of Power Works and Housing Highway Training Centre","alt_name":null,"ward_code":"LASBDY05","ward_name":"Akoro","lga_code":"25006","lga_name":"Badagry","state_code":"LA","state_name":"Lagos"}},{"type":"Feature","id":"sv_fc_poi_govt_building.fid--3786de59_170540c0e31_4ed1","geometry":{"type":"Point","coordinates":[2.8331,6.3935]},"geometry_name":"geom","properties":{"geometry_type":"POINT","latitude":6.393536084251331,"longitude":2.833098441029603,"global_id":"8a7f53e7-8a11-4858-842d-2e8c9a6c64ab","name":"Sakpo Police Station","alt_name":null,"ward_code":"LASBDY05","ward_name":"Akoro","lga_code":"25006","lga_name":"Badagry","state_code":"LA","state_name":"Lagos"}},{"type":"Feature","id":"sv_fc_poi_govt_building.fid--3786de59_170540c0e31_4ed2","geometry":{"type":"Point","coordinates":[2.8315,6.3935]},"geometry_name":"geom","properties":{"geometry_type":"POINT","latitude":6.393476693942438,"longitude":2.8315327766430274,"global_id":"a730b232-99bd-4666-8e65-442c3a46d5f6","name":"Badagry West Marriage Registry","alt_name":null,"ward_code":"LASBDY05","ward_name":"Akoro","lga_code":"25006","lga_name":"Badagry","state_code":"LA","state_name":"Lagos"}},{"type":"Feature","id":"sv_fc_poi_govt_building.fid--3786de59_170540c0e31_4ed3","geometry":{"type":"Point","coordinates":[3.0348,6.4817]},"geometry_name":"geom","properties":{"geometry_type":"POINT","latitude":6.481651530057815,"longitude":3.034822147599652,"global_id":"3223c36b-f5f7-4c8d-9cdb-dd28843571da","name":"Lagos State Driver Institute","alt_name":null,"ward_code":"LASBDY08","ward_name":"Araromi-Ale","lga_code":"25006","lga_name":"Badagry","state_code":"LA","state_name":"Lagos"}},{"type":"Feature","id":"sv_fc_poi_govt_building.fid--3786de59_170540c0e31_4ed4","geometry":{"type":"Point","coordinates":[2.9004,6.4122]},"geometry_name":"geom","properties":{"geometry_type":"POINT","latitude":6.412199666507774,"longitude":2.9003715881717618,"global_id":"1ef43e7f-5035-414f-98a9-8c044a452268","name":"Vip Chalet","alt_name":null,"ward_code":"LASBDY09","ward_name":"Awhanjigoh","lga_code":"25006","lga_name":"Badagry","state_code":"LA","state_name":"Lagos"}},{"type":"Feature","id":"sv_fc_poi_govt_building.fid--3786de59_170540c0e31_4ed5","geometry":{"type":"Point","coordinates":[2.8966,6.4126]},"geometry_name":"geom","properties":{"geometry_type":"POINT","latitude":6.412570461559293,"longitude":2.8966248262801986,"global_id":"239ae13a-297d-4815-b880-162aa6c9be2a","name":"Government Building","alt_name":null,"ward_code":"LASBDY09","ward_name":"Awhanjigoh","lga_code":"25006","lga_name":"Badagry","state_code":"LA","state_name":"Lagos"}},{"type":"Feature","id":"sv_fc_poi_govt_building.fid--3786de59_170540c0e31_4ed6","geometry":{"type":"Point","coordinates":[2.918,6.439]},"geometry_name":"geom","properties":{"geometry_type":"POINT","latitude":6.438976667,"longitude":2.918006667,"global_id":"ffe797f1-57d3-4759-88bf-679bc57f0a6e","name":"Independent National Electoral Commission","alt_name":null,"ward_code":"LASBDY09","ward_name":"Awhanjigoh","lga_code":"25006","lga_name":"Badagry","state_code":"LA","state_name":"Lagos"}},{"type":"Feature","id":"sv_fc_poi_govt_building.fid--3786de59_170540c0e31_4ed7","geometry":{"type":"Point","coordinates":[2.9176,6.4394]},"geometry_name":"geom","properties":{"geometry_type":"POINT","latitude":6.439403164735814,"longitude":2.917646862924963,"global_id":"da20134c-348b-4161-9e97-84a1fa57da03","name":"Olorunda Development Area Office","alt_name":null,"ward_code":"LASBDY09","ward_name":"Awhanjigoh","lga_code":"25006","lga_name":"Badagry","state_code":"LA","state_name":"Lagos"}},{"type":"Feature","id":"sv_fc_poi_govt_building.fid--3786de59_170540c0e31_4ed8","geometry":{"type":"Point","coordinates":[2.7115,6.3795]},"geometry_name":"geom","properties":{"geometry_type":"POINT","latitude":6.379505521095893,"longitude":2.711488674297767,"global_id":"ff092f02-7ea3-4872-bc80-9ddd17ddf813","name":"Microwater Scheme Washcom","alt_name":null,"ward_code":"LASBDY10","ward_name":"Gbethrome","lga_code":"25006","lga_name":"Badagry","state_code":"LA","state_name":"Lagos"}},{"type":"Feature","id":"sv_fc_poi_govt_building.fid--3786de59_170540c0e31_4ed9","geometry":{"type":"Point","coordinates":[3.0144,6.4981]},"geometry_name":"geom","properties":{"geometry_type":"POINT","latitude":6.498130565115051,"longitude":3.014367823344614,"global_id":"ee391a24-61a9-4198-8070-a260dd05534d","name":"Livestock Multiplication Centre","alt_name":null,"ward_code":"LASBDY13","ward_name":"Ilogbo","lga_code":"25006","lga_name":"Badagry","state_code":"LA","state_name":"Lagos"}},{"type":"Feature","id":"sv_fc_poi_govt_building.fid--3786de59_170540c0e31_4eda","geometry":{"type":"Point","coordinates":[2.9975,6.4953]},"geometry_name":"geom","properties":{"geometry_type":"POINT","latitude":6.495312156300758,"longitude":2.9974702248165257,"global_id":"e093b85c-baf6-48bf-90ec-cdbe20b39b4e","name":"Lagos State Agricultural Inputs Supply Authority","alt_name":null,"ward_code":"LASBDY13","ward_name":"Ilogbo","lga_code":"25006","lga_name":"Badagry","state_code":"LA","state_name":"Lagos"}},{"type":"Feature","id":"sv_fc_poi_govt_building.fid--3786de59_170540c0e31_4edb","geometry":{"type":"Point","coordinates":[2.9768,6.4679]},"geometry_name":"geom","properties":{"geometry_type":"POINT","latitude":6.467916826792741,"longitude":2.9768257866998513,"global_id":"a43ea3d1-9416-4561-83ea-e4353c525e58","name":"Muhammadu Buhari Housing Estate","alt_name":null,"ward_code":"LASBDY13","ward_name":"Ilogbo","lga_code":"25006","lga_name":"Badagry","state_code":"LA","state_name":"Lagos"}},{"type":"Feature","id":"sv_fc_poi_govt_building.fid--3786de59_170540c0e31_4edc","geometry":{"type":"Point","coordinates":[3.0274,6.501]},"geometry_name":"geom","properties":{"geometry_type":"POINT","latitude":6.500994709104635,"longitude":3.027425681595533,"global_id":"96052453-2763-4898-a411-e580f33400f9","name":"Olorunda Lcda","alt_name":null,"ward_code":"LASBDY13","ward_name":"Ilogbo","lga_code":"25006","lga_name":"Badagry","state_code":"LA","state_name":"Lagos"}},{"type":"Feature","id":"sv_fc_poi_govt_building.fid--3786de59_170540c0e31_4edd","geometry":{"type":"Point","coordinates":[2.9574,6.4955]},"geometry_name":"geom","properties":{"geometry_type":"POINT","latitude":6.495511374699115,"longitude":2.957425530080893,"global_id":"d1b6bffc-3b19-48a4-9123-a712b95d4299","name":"Igborosun Water Plant","alt_name":null,"ward_code":"LASBDY13","ward_name":"Ilogbo","lga_code":"25006","lga_name":"Badagry","state_code":"LA","state_name":"Lagos"}},{"type":"Feature","id":"sv_fc_poi_govt_building.fid--3786de59_170540c0e31_4ede","geometry":{"type":"Point","coordinates":[2.9611,6.4778]},"geometry_name":"geom","properties":{"geometry_type":"POINT","latitude":6.477776171432021,"longitude":2.961125130089132,"global_id":"03afd84e-c4bd-4404-91ae-fa17f4dab416","name":"Lagos State Coconut Development AuthorityLascoda","alt_name":null,"ward_code":"LASBDY13","ward_name":"Ilogbo","lga_code":"25006","lga_name":"Badagry","state_code":"LA","state_name":"Lagos"}},{"type":"Feature","id":"sv_fc_poi_govt_building.fid--3786de59_170540c0e31_4edf","geometry":{"type":"Point","coordinates":[3.011,6.4153]},"geometry_name":"geom","properties":{"geometry_type":"POINT","latitude":6.41525306603137,"longitude":3.010962985560398,"global_id":"90a767c1-29c7-4300-8cae-a734a27e9bb8","name":"Ajido Area Office","alt_name":null,"ward_code":"LASBDY15","ward_name":"Iworo-Gbanko","lga_code":"25006","lga_name":"Badagry","state_code":"LA","state_name":"Lagos"}},{"type":"Feature","id":"sv_fc_poi_govt_building.fid--3786de59_170540c0e31_4ee0","geometry":{"type":"Point","coordinates":[3.0171,6.4134]},"geometry_name":"geom","properties":{"geometry_type":"POINT","latitude":6.413400440170307,"longitude":3.017081954745607,"global_id":"017a5c99-1023-46b0-9526-17464282e0eb","name":"Lagos State Judiciary Magistrate Court","alt_name":null,"ward_code":"LASBDY15","ward_name":"Iworo-Gbanko","lga_code":"25006","lga_name":"Badagry","state_code":"LA","state_name":"Lagos"}},{"type":"Feature","id":"sv_fc_poi_govt_building.fid--3786de59_170540c0e31_4ee1","geometry":{"type":"Point","coordinates":[2.8913,6.4133]},"geometry_name":"geom","properties":{"geometry_type":"POINT","latitude":6.413327341909727,"longitude":2.8913213328440692,"global_id":"cdb752b4-2486-44e8-9c19-eaefb737b919","name":"Vio Badagry Office","alt_name":null,"ward_code":"LASBDY16","ward_name":"Jegba Quarters","lga_code":"25006","lga_name":"Badagry","state_code":"LA","state_name":"Lagos"}},{"type":"Feature","id":"sv_fc_poi_govt_building.fid--3786de59_170540c0e31_4ee2","geometry":{"type":"Point","coordinates":[2.8755,6.4172]},"geometry_name":"geom","properties":{"geometry_type":"POINT","latitude":6.417150528673388,"longitude":2.8755055764912156,"global_id":"bd702a43-a940-4553-9bca-f9d75a15e0ff","name":"Nigeria Customs Service Western Marine","alt_name":null,"ward_code":"LASBDY16","ward_name":"Jegba Quarters","lga_code":"25006","lga_name":"Badagry","state_code":"LA","state_name":"Lagos"}},{"type":"Feature","id":"sv_fc_poi_govt_building.fid--3786de59_170540c0e31_4ee3","geometry":{"type":"Point","coordinates":[2.8923,6.412]},"geometry_name":"geom","properties":{"geometry_type":"POINT","latitude":6.411998264782901,"longitude":2.8922907430691818,"global_id":"364d2b05-e636-4b0f-85ba-5028001849ce","name":"Physical Planning Building","alt_name":null,"ward_code":"LASBDY16","ward_name":"Jegba Quarters","lga_code":"25006","lga_name":"Badagry","state_code":"LA","state_name":"Lagos"}},{"type":"Feature","id":"sv_fc_poi_govt_building.fid--3786de59_170540c0e31_4ee4","geometry":{"type":"Point","coordinates":[2.8935,6.412]},"geometry_name":"geom","properties":{"geometry_type":"POINT","latitude":6.412038333,"longitude":2.893455,"global_id":"5a00d0eb-2f50-4de0-b394-56d07312c941","name":"Lagos State Public Club Badagry","alt_name":null,"ward_code":"LASBDY16","ward_name":"Jegba Quarters","lga_code":"25006","lga_name":"Badagry","state_code":"LA","state_name":"Lagos"}},{"type":"Feature","id":"sv_fc_poi_govt_building.fid--3786de59_170540c0e31_4ee5","geometry":{"type":"Point","coordinates":[2.8904,6.4122]},"geometry_name":"geom","properties":{"geometry_type":"POINT","latitude":6.412157836321402,"longitude":2.8903836480216873,"global_id":"73b37cc9-b0aa-4b4b-8793-6d3ac9ab51e0","name":"High Court Badagry","alt_name":null,"ward_code":"LASBDY16","ward_name":"Jegba Quarters","lga_code":"25006","lga_name":"Badagry","state_code":"LA","state_name":"Lagos"}},{"type":"Feature","id":"sv_fc_poi_govt_building.fid--3786de59_170540c0e31_4ee6","geometry":{"type":"Point","coordinates":[2.7063,6.4211]},"geometry_name":"geom","properties":{"geometry_type":"POINT","latitude":6.421115940252981,"longitude":2.7063475605838208,"global_id":"19bbf7a6-aab6-4ba1-a0ef-5ba03c3f7f0f","name":"Nigeria Immigration Service","alt_name":null,"ward_code":"LASBDY17","ward_name":"Kweme","lga_code":"25006","lga_name":"Badagry","state_code":"LA","state_name":"Lagos"}},{"type":"Feature","id":"sv_fc_poi_govt_building.fid--3786de59_170540c0e31_4ee7","geometry":{"type":"Point","coordinates":[2.7063,6.4212]},"geometry_name":"geom","properties":{"geometry_type":"POINT","latitude":6.421178762016557,"longitude":2.70629870657005,"global_id":"8cc1065b-a252-46d5-8b53-35159d6a9f7f","name":"Nigeria Customs Service","alt_name":null,"ward_code":"LASBDY17","ward_name":"Kweme","lga_code":"25006","lga_name":"Badagry","state_code":"LA","state_name":"Lagos"}},{"type":"Feature","id":"sv_fc_poi_govt_building.fid--3786de59_170540c0e31_4ee8","geometry":{"type":"Point","coordinates":[2.897,6.4306]},"geometry_name":"geom","properties":{"geometry_type":"POINT","latitude":6.430620548113496,"longitude":2.896954903817173,"global_id":"e2c17941-7b96-4cf3-a36a-dfab06b729cb","name":"Lasu Staff Quarters","alt_name":null,"ward_code":"LASBDY18","ward_name":"Posukoh","lga_code":"25006","lga_name":"Badagry","state_code":"LA","state_name":"Lagos"}},{"type":"Feature","id":"sv_fc_poi_govt_building.fid--3786de59_170540c0e31_4ee9","geometry":{"type":"Point","coordinates":[2.8983,6.4315]},"geometry_name":"geom","properties":{"geometry_type":"POINT","latitude":6.431473815087186,"longitude":2.89826239142333,"global_id":"b3bf9e98-6906-483d-b821-e0a094381f4f","name":"Lagos Homes Ajara","alt_name":null,"ward_code":"LASBDY18","ward_name":"Posukoh","lga_code":"25006","lga_name":"Badagry","state_code":"LA","state_name":"Lagos"}},{"type":"Feature","id":"sv_fc_poi_govt_building.fid--3786de59_170540c0e31_4eea","geometry":{"type":"Point","coordinates":[2.766,6.4209]},"geometry_name":"geom","properties":{"geometry_type":"POINT","latitude":6.420850611377379,"longitude":2.7660340145955336,"global_id":"9b510ba9-e80e-4994-a68d-247554ff5c33","name":"Badagry West Local Government","alt_name":null,"ward_code":"LASBDY20","ward_name":"Wesere","lga_code":"25006","lga_name":"Badagry","state_code":"LA","state_name":"Lagos"}},{"type":"Feature","id":"sv_fc_poi_govt_building.fid--3786de59_170540c0e31_4eeb","geometry":{"type":"Point","coordinates":[3.7146,6.649]},"geometry_name":"geom","properties":{"geometry_type":"POINT","latitude":6.648984726793305,"longitude":3.714569495621341,"global_id":"c381d3e9-6590-4254-bf3f-964bad6f5483","name":"Lagos State Mot VIS","alt_name":null,"ward_code":"LASEPE01","ward_name":"Agbowa 1","lga_code":"25007","lga_name":"Epe","state_code":"LA","state_name":"Lagos"}},{"type":"Feature","id":"sv_fc_poi_govt_building.fid--3786de59_170540c0e31_4eec","geometry":{"type":"Point","coordinates":[3.712,6.655]},"geometry_name":"geom","properties":{"geometry_type":"POINT","latitude":6.654962428536965,"longitude":3.712004640141836,"global_id":"26ed2a38-0fd6-4e3a-adc4-9df31a2ed04c","name":"Lasema","alt_name":null,"ward_code":"LASEPE01","ward_name":"Agbowa 1","lga_code":"25007","lga_name":"Epe","state_code":"LA","state_name":"Lagos"}},{"type":"Feature","id":"sv_fc_poi_govt_building.fid--3786de59_170540c0e31_4eed","geometry":{"type":"Point","coordinates":[3.7138,6.6493]},"geometry_name":"geom","properties":{"geometry_type":"POINT","latitude":6.6492570164016875,"longitude":3.7137976547456075,"global_id":"5bdc1468-bf04-4117-b2ed-1994aa57085e","name":"Ikosi Ejirin Lcda","alt_name":null,"ward_code":"LASEPE01","ward_name":"Agbowa 1","lga_code":"25007","lga_name":"Epe","state_code":"LA","state_name":"Lagos"}},{"type":"Feature","id":"sv_fc_poi_govt_building.fid--3786de59_170540c0e31_4eee","geometry":{"type":"Point","coordinates":[3.7114,6.6441]},"geometry_name":"geom","properties":{"geometry_type":"POINT","latitude":6.644076542999241,"longitude":3.7113711065721087,"global_id":"3867a89a-54f7-413f-90be-8a0bb4b6d491","name":"Regional Water Supply Scheme","alt_name":null,"ward_code":"LASEPE02","ward_name":"Agbowa 2/Ado","lga_code":"25007","lga_name":"Epe","state_code":"LA","state_name":"Lagos"}},{"type":"Feature","id":"sv_fc_poi_govt_building.fid--3786de59_170540c0e31_4eef","geometry":{"type":"Point","coordinates":[3.7478,6.68]},"geometry_name":"geom","properties":{"geometry_type":"POINT","latitude":6.680018115082994,"longitude":3.7478339301138477,"global_id":"25c4edcd-4bda-4f27-bcbd-66ca572f144a","name":"Lagos State Water Corporation","alt_name":null,"ward_code":"LASEPE05","ward_name":"Ajebo Orugbo","lga_code":"25007","lga_name":"Epe","state_code":"LA","state_name":"Lagos"}},{"type":"Feature","id":"sv_fc_poi_govt_building.fid--3786de59_170540c0e31_4ef0","geometry":{"type":"Point","coordinates":[3.8933,6.6147]},"geometry_name":"geom","properties":{"geometry_type":"POINT","latitude":6.614724121928521,"longitude":3.893256735615484,"global_id":"287eff86-0bff-4ac7-91f8-d1358398524a","name":"Ejinrin Water Scheme","alt_name":null,"ward_code":"LASEPE07","ward_name":"Ejirin/Ketu","lga_code":"25007","lga_name":"Epe","state_code":"LA","state_name":"Lagos"}},{"type":"Feature","id":"sv_fc_poi_govt_building.fid--3786de59_170540c0e31_4ef1","geometry":{"type":"Point","coordinates":[4.0514,6.636]},"geometry_name":"geom","properties":{"geometry_type":"POINT","latitude":6.635976417341102,"longitude":4.05137179123444,"global_id":"438e6e5e-d499-4adf-ab10-9981a0ddfd39","name":"Family Support Programme Centre","alt_name":null,"ward_code":"LASEPE08","ward_name":"Ibonwon","lga_code":"25007","lga_name":"Epe","state_code":"LA","state_name":"Lagos"}},{"type":"Feature","id":"sv_fc_poi_govt_building.fid--3786de59_170540c0e31_4ef2","geometry":{"type":"Point","coordinates":[3.9496,6.5835]},"geometry_name":"geom","properties":{"geometry_type":"POINT","latitude":6.583480150587416,"longitude":3.9496086569390574,"global_id":"027f7e6e-28a9-4647-9d3b-1b257c2d798d","name":"Tollgate Scale","alt_name":null,"ward_code":"LASEPE09","ward_name":"Ifesowapo/Temu Oke-Oso","lga_code":"25007","lga_name":"Epe","state_code":"LA","state_name":"Lagos"}},{"type":"Feature","id":"sv_fc_poi_govt_building.fid--3786de59_170540c0e31_4ef3","geometry":{"type":"Point","coordinates":[4.0062,6.6765]},"geometry_name":"geom","properties":{"geometry_type":"POINT","latitude":6.676517915767406,"longitude":4.006202157812405,"global_id":"3cc4a8b5-4b5d-4bca-901f-f5d68ed061cd","name":"Vocational Training and Skills Acquisition Centre Igboye Epe","alt_name":null,"ward_code":"LASEPE10","ward_name":"Ilara","lga_code":"25007","lga_name":"Epe","state_code":"LA","state_name":"Lagos"}},{"type":"Feature","id":"sv_fc_poi_govt_building.fid--3786de59_170540c0e31_4ef4","geometry":{"type":"Point","coordinates":[3.9883,6.5958]},"geometry_name":"geom","properties":{"geometry_type":"POINT","latitude":6.595797221815116,"longitude":3.9883212642285852,"global_id":"609609d6-804d-4f9a-ac5e-f56757e36625","name":"Independent National Electoral Commission","alt_name":null,"ward_code":"LASEPE11","ward_name":"Mayunre-Oriba","lga_code":"25007","lga_name":"Epe","state_code":"LA","state_name":"Lagos"}},{"type":"Feature","id":"sv_fc_poi_govt_building.fid--3786de59_170540c0e31_4ef5","geometry":{"type":"Point","coordinates":[3.8033,6.5954]},"geometry_name":"geom","properties":{"geometry_type":"POINT","latitude":6.595399110729056,"longitude":3.8033026350375185,"global_id":"ad0a5390-92fd-4184-9140-49b1f3e64795","name":"Oriba Costormary Court","alt_name":null,"ward_code":"LASEPE12","ward_name":"Mayunre-Oriba/Orepete-Ito Omu","lga_code":"25007","lga_name":"Epe","state_code":"LA","state_name":"Lagos"}},{"type":"Feature","id":"sv_fc_poi_govt_building.fid--3786de59_170540c0e31_4ef6","geometry":{"type":"Point","coordinates":[3.9849,6.593]},"geometry_name":"geom","properties":{"geometry_type":"POINT","latitude":6.592981874078673,"longitude":3.98491396918521,"global_id":"11330e6a-2745-4c04-8f69-3271fd3782f9","name":"Epe Lga Secretariat","alt_name":null,"ward_code":"LASEPE14","ward_name":"Odomola","lga_code":"25007","lga_name":"Epe","state_code":"LA","state_name":"Lagos"}},{"type":"Feature","id":"sv_fc_poi_govt_building.fid--3786de59_170540c0e31_4ef7","geometry":{"type":"Point","coordinates":[3.9628,6.6187]},"geometry_name":"geom","properties":{"geometry_type":"POINT","latitude":6.618720974999831,"longitude":3.96283579342789,"global_id":"7287fef2-db53-47cc-b3cf-df6cf8f6fb3d","name":"Atlantic Hall Sports Complex","alt_name":null,"ward_code":"LASEPE15","ward_name":"Odoragunsin","lga_code":"25007","lga_name":"Epe","state_code":"LA","state_name":"Lagos"}},{"type":"Feature","id":"sv_fc_poi_govt_building.fid--3786de59_170540c0e31_4ef8","geometry":{"type":"Point","coordinates":[3.9158,6.6515]},"geometry_name":"geom","properties":{"geometry_type":"POINT","latitude":6.651509247694649,"longitude":3.915754894895683,"global_id":"42f201d4-c3fc-449c-90fa-d56fa577bc31","name":"Centre For Rural Development Igbodu Molajoye","alt_name":null,"ward_code":"LASEPE15","ward_name":"Odoragunsin","lga_code":"25007","lga_name":"Epe","state_code":"LA","state_name":"Lagos"}},{"type":"Feature","id":"sv_fc_poi_govt_building.fid--3786de59_170540c0e31_4ef9","geometry":{"type":"Point","coordinates":[3.9891,6.6478]},"geometry_name":"geom","properties":{"geometry_type":"POINT","latitude":6.6478032,"longitude":3.9890617,"global_id":"c8c27835-1358-4723-9500-0843f265203a","name":"Eredo Local Government","alt_name":null,"ward_code":"LASEPE15","ward_name":"Odoragunsin","lga_code":"25007","lga_name":"Epe","state_code":"LA","state_name":"Lagos"}},{"type":"Feature","id":"sv_fc_poi_govt_building.fid--3786de59_170540c0e31_4efa","geometry":{"type":"Point","coordinates":[3.7725,6.6412]},"geometry_name":"geom","properties":{"geometry_type":"POINT","latitude":6.641189617471345,"longitude":3.7725231824853593,"global_id":"2fa05ffd-789a-4202-ab9d-d09942d0b56e","name":"Acquisition Center","alt_name":null,"ward_code":"LASEPE17","ward_name":"Owu/Ota","lga_code":"25007","lga_name":"Epe","state_code":"LA","state_name":"Lagos"}},{"type":"Feature","id":"sv_fc_poi_govt_building.fid--3786de59_170540c0e31_4efb","geometry":{"type":"Point","coordinates":[3.4366,6.4379]},"geometry_name":"geom","properties":{"geometry_type":"POINT","latitude":6.4378751207025084,"longitude":3.436558660014095,"global_id":"46e3f500-caef-4925-b0c7-e917415cdefd","name":"Bayelsa State Governor's Lodge","alt_name":null,"ward_code":"LASEOA01","ward_name":"1004/Aboyade","lga_code":"25008","lga_name":"Eti Osa","state_code":"LA","state_name":"Lagos"}},{"type":"Feature","id":"sv_fc_poi_govt_building.fid--3786de59_170540c0e31_4efc","geometry":{"type":"Point","coordinates":[3.562,6.4667]},"geometry_name":"geom","properties":{"geometry_type":"POINT","latitude":6.466667446039128,"longitude":3.561969076069181,"global_id":"d31da77b-ac26-4691-9101-af4e6ff34a13","name":"Ministry Of Commerce","alt_name":null,"ward_code":"LASEOA03","ward_name":"Ajah","lga_code":"25008","lga_name":"Eti Osa","state_code":"LA","state_name":"Lagos"}},{"type":"Feature","id":"sv_fc_poi_govt_building.fid--3786de59_170540c0e31_4efd","geometry":{"type":"Point","coordinates":[3.4324,6.4282]},"geometry_name":"geom","properties":{"geometry_type":"POINT","latitude":6.428231503003624,"longitude":3.4323687429132503,"global_id":"8303654c-db8b-41f2-b158-600bd872813b","name":"South African Embassy","alt_name":null,"ward_code":"LASEOA05","ward_name":"Apese/6 Extension","lga_code":"25008","lga_name":"Eti Osa","state_code":"LA","state_name":"Lagos"}},{"type":"Feature","id":"sv_fc_poi_govt_building.fid--3786de59_170540c0e31_4efe","geometry":{"type":"Point","coordinates":[3.4526,6.4246]},"geometry_name":"geom","properties":{"geometry_type":"POINT","latitude":6.424553333,"longitude":3.452588333,"global_id":"cbce59ca-d62e-448c-aa67-a55dcf902172","name":"Iru Victoria Island Lcda","alt_name":null,"ward_code":"LASEOA05","ward_name":"Apese/6 Extension","lga_code":"25008","lga_name":"Eti Osa","state_code":"LA","state_name":"Lagos"}},{"type":"Feature","id":"sv_fc_poi_govt_building.fid--3786de59_170540c0e31_4eff","geometry":{"type":"Point","coordinates":[3.434,6.4438]},"geometry_name":"geom","properties":{"geometry_type":"POINT","latitude":6.4438024308706385,"longitude":3.4339531138698765,"global_id":"fc108629-4ed0-4f53-b852-89cd3b584b00","name":"Residence Of British High Commission","alt_name":null,"ward_code":"LASEOA07","ward_name":"Falomo/Oyinkan Abayomi","lga_code":"25008","lga_name":"Eti Osa","state_code":"LA","state_name":"Lagos"}},{"type":"Feature","id":"sv_fc_poi_govt_building.fid--3786de59_170540c0e31_4f00","geometry":{"type":"Point","coordinates":[3.4443,6.439]},"geometry_name":"geom","properties":{"geometry_type":"POINT","latitude":6.439037378893191,"longitude":3.4443322728382135,"global_id":"677d9394-bead-43d0-984e-26afdedb61c6","name":"Austrian Embassy","alt_name":null,"ward_code":"LASEOA07","ward_name":"Falomo/Oyinkan Abayomi","lga_code":"25008","lga_name":"Eti Osa","state_code":"LA","state_name":"Lagos"}},{"type":"Feature","id":"sv_fc_poi_govt_building.fid--3786de59_170540c0e31_4f01","geometry":{"type":"Point","coordinates":[3.4438,6.4397]},"geometry_name":"geom","properties":{"geometry_type":"POINT","latitude":6.439653508210113,"longitude":3.4437650392684866,"global_id":"597a0900-0fc4-4829-a095-5a33bfda0223","name":"Federal High Court","alt_name":null,"ward_code":"LASEOA07","ward_name":"Falomo/Oyinkan Abayomi","lga_code":"25008","lga_name":"Eti Osa","state_code":"LA","state_name":"Lagos"}},{"type":"Feature","id":"sv_fc_poi_govt_building.fid--3786de59_170540c0e31_4f02","geometry":{"type":"Point","coordinates":[3.4294,6.4436]},"geometry_name":"geom","properties":{"geometry_type":"POINT","latitude":6.443643442623907,"longitude":3.4294140145955336,"global_id":"5e801500-9466-453b-90ca-ee0088c4608b","name":"Nigerian Postal Service","alt_name":null,"ward_code":"LASEOA07","ward_name":"Falomo/Oyinkan Abayomi","lga_code":"25008","lga_name":"Eti Osa","state_code":"LA","state_name":"Lagos"}},{"type":"Feature","id":"sv_fc_poi_govt_building.fid--3786de59_170540c0e31_4f03","geometry":{"type":"Point","coordinates":[3.4721,6.4457]},"geometry_name":"geom","properties":{"geometry_type":"POINT","latitude":6.445725928151309,"longitude":3.472077423352853,"global_id":"2248840c-bb3d-48f2-acbd-4b2ab27556a7","name":"Raw Material Testing Research Office","alt_name":null,"ward_code":"LASEOA10","ward_name":"Ikate/Lekki","lga_code":"25008","lga_name":"Eti Osa","state_code":"LA","state_name":"Lagos"}},{"type":"Feature","id":"sv_fc_poi_govt_building.fid--3786de59_170540c0e31_4f04","geometry":{"type":"Point","coordinates":[3.4702,6.4459]},"geometry_name":"geom","properties":{"geometry_type":"POINT","latitude":6.445949982635981,"longitude":3.470198438104317,"global_id":"e7b78d83-a004-489b-9da2-0620e895c33f","name":"Nigeria British Chamber Of Commerce","alt_name":null,"ward_code":"LASEOA10","ward_name":"Ikate/Lekki","lga_code":"25008","lga_name":"Eti Osa","state_code":"LA","state_name":"Lagos"}},{"type":"Feature","id":"sv_fc_poi_govt_building.fid--3786de59_170540c0e31_4f05","geometry":{"type":"Point","coordinates":[3.4668,6.4478]},"geometry_name":"geom","properties":{"geometry_type":"POINT","latitude":6.447781192354695,"longitude":3.4667540013118607,"global_id":"b1952716-284d-459b-9917-8ed2d2619925","name":"Lagos State Wastewater Management Office","alt_name":null,"ward_code":"LASEOA10","ward_name":"Ikate/Lekki","lga_code":"25008","lga_name":"Eti Osa","state_code":"LA","state_name":"Lagos"}},{"type":"Feature","id":"sv_fc_poi_govt_building.fid--3786de59_170540c0e31_4f06","geometry":{"type":"Point","coordinates":[3.4726,6.4465]},"geometry_name":"geom","properties":{"geometry_type":"POINT","latitude":6.446469705112453,"longitude":3.472607242491216,"global_id":"eedaf7c4-42d4-4546-96d8-795f24562933","name":"Standard Organization Of Nigeria","alt_name":null,"ward_code":"LASEOA10","ward_name":"Ikate/Lekki","lga_code":"25008","lga_name":"Eti Osa","state_code":"LA","state_name":"Lagos"}},{"type":"Feature","id":"sv_fc_poi_govt_building.fid--3786de59_170540c0e31_4f07","geometry":{"type":"Point","coordinates":[3.4486,6.4512]},"geometry_name":"geom","properties":{"geometry_type":"POINT","latitude":6.451169513202027,"longitude":3.4485550454103233,"global_id":"424a619f-c144-4b0d-bacd-9b5fbb3e17bf","name":"Jamb Office","alt_name":null,"ward_code":"LASEOA11","ward_name":"Ikoyi 1","lga_code":"25008","lga_name":"Eti Osa","state_code":"LA","state_name":"Lagos"}},{"type":"Feature","id":"sv_fc_poi_govt_building.fid--3786de59_170540c0e31_4f08","geometry":{"type":"Point","coordinates":[3.4228,6.447]},"geometry_name":"geom","properties":{"geometry_type":"POINT","latitude":6.446969797011786,"longitude":3.422808493436129,"global_id":"16b7d915-7ba5-47b2-ab9c-e06a7d024d50","name":"ICPC Zonal Office Lagos","alt_name":null,"ward_code":"LASEOA12","ward_name":"Ikoyi 2","lga_code":"25008","lga_name":"Eti Osa","state_code":"LA","state_name":"Lagos"}},{"type":"Feature","id":"sv_fc_poi_govt_building.fid--3786de59_170540c0e31_4f09","geometry":{"type":"Point","coordinates":[3.4282,6.4479]},"geometry_name":"geom","properties":{"geometry_type":"POINT","latitude":6.4479261438418245,"longitude":3.428161604526352,"global_id":"e13c35fe-4e9c-49d3-9079-8b9ca79777b6","name":"Marriage Registry","alt_name":null,"ward_code":"LASEOA12","ward_name":"Ikoyi 2","lga_code":"25008","lga_name":"Eti Osa","state_code":"LA","state_name":"Lagos"}},{"type":"Feature","id":"sv_fc_poi_govt_building.fid--3786de59_170540c0e31_4f0a","geometry":{"type":"Point","coordinates":[3.4215,6.4474]},"geometry_name":"geom","properties":{"geometry_type":"POINT","latitude":6.44743365323413,"longitude":3.4215445545979164,"global_id":"917b4dba-41e4-456e-a867-9933e0460b9d","name":"EFCC","alt_name":null,"ward_code":"LASEOA12","ward_name":"Ikoyi 2","lga_code":"25008","lga_name":"Eti Osa","state_code":"LA","state_name":"Lagos"}},{"type":"Feature","id":"sv_fc_poi_govt_building.fid--3786de59_170540c0e31_4f0b","geometry":{"type":"Point","coordinates":[3.4189,6.4468]},"geometry_name":"geom","properties":{"geometry_type":"POINT","latitude":6.446816045885772,"longitude":3.4188673414536974,"global_id":"802fee64-3dfc-4f86-932c-58bc1854260e","name":"National Bureau Of Statistics","alt_name":null,"ward_code":"LASEOA12","ward_name":"Ikoyi 2","lga_code":"25008","lga_name":"Eti Osa","state_code":"LA","state_name":"Lagos"}},{"type":"Feature","id":"sv_fc_poi_govt_building.fid--3786de59_170540c0e31_4f0c","geometry":{"type":"Point","coordinates":[3.4268,6.4533]},"geometry_name":"geom","properties":{"geometry_type":"POINT","latitude":6.453337392278524,"longitude":3.426829508187593,"global_id":"937a902c-a7c7-4a0d-bc63-19667ef11a29","name":"Nigeria Communications Commission Ikoyi","alt_name":null,"ward_code":"LASEOA12","ward_name":"Ikoyi 2","lga_code":"25008","lga_name":"Eti Osa","state_code":"LA","state_name":"Lagos"}},{"type":"Feature","id":"sv_fc_poi_govt_building.fid--3786de59_170540c0e31_4f0d","geometry":{"type":"Point","coordinates":[3.4279,6.4528]},"geometry_name":"geom","properties":{"geometry_type":"POINT","latitude":6.452835884299798,"longitude":3.4279039852485353,"global_id":"746859c0-169f-4aef-97c2-6751aeb6b0d3","name":"Ikoyi Club Hotel","alt_name":null,"ward_code":"LASEOA12","ward_name":"Ikoyi 2","lga_code":"25008","lga_name":"Eti Osa","state_code":"LA","state_name":"Lagos"}},{"type":"Feature","id":"sv_fc_poi_govt_building.fid--3786de59_170540c0e31_4f0e","geometry":{"type":"Point","coordinates":[3.4281,6.4519]},"geometry_name":"geom","properties":{"geometry_type":"POINT","latitude":6.451946825446599,"longitude":3.4281334541676425,"global_id":"f84fb327-f0da-481a-86e2-101750052a1b","name":"Lagos State Water Cooperation","alt_name":null,"ward_code":"LASEOA12","ward_name":"Ikoyi 2","lga_code":"25008","lga_name":"Eti Osa","state_code":"LA","state_name":"Lagos"}},{"type":"Feature","id":"sv_fc_poi_govt_building.fid--3786de59_170540c0e31_4f0f","geometry":{"type":"Point","coordinates":[3.4672,6.4242]},"geometry_name":"geom","properties":{"geometry_type":"POINT","latitude":6.424162804363216,"longitude":3.4671667386864025,"global_id":"7e7d85b9-d2cb-4e39-b501-c1c42b34a1ce","name":"Lagos Court Of Arbitration","alt_name":null,"ward_code":"LASEOA13","ward_name":"Ilasan/Orile","lga_code":"25008","lga_name":"Eti Osa","state_code":"LA","state_name":"Lagos"}},{"type":"Feature","id":"sv_fc_poi_govt_building.fid--3786de59_170540c0e31_4f10","geometry":{"type":"Point","coordinates":[3.4684,6.4282]},"geometry_name":"geom","properties":{"geometry_type":"POINT","latitude":6.428222525854728,"longitude":3.4684268073018867,"global_id":"3f120eb1-f0e0-4772-848c-83b02622926e","name":"Federal Govt Industrial Training Fund","alt_name":null,"ward_code":"LASEOA13","ward_name":"Ilasan/Orile","lga_code":"25008","lga_name":"Eti Osa","state_code":"LA","state_name":"Lagos"}},{"type":"Feature","id":"sv_fc_poi_govt_building.fid--3786de59_170540c0e31_4f11","geometry":{"type":"Point","coordinates":[3.5252,6.4382]},"geometry_name":"geom","properties":{"geometry_type":"POINT","latitude":6.4382,"longitude":3.52522,"global_id":"fd7c137b-b873-4a9e-98e8-5e218a6e0e72","name":"Eti-Osa Local Government","alt_name":null,"ward_code":"LASEOA15","ward_name":"Maroko/Okun Alfa","lga_code":"25008","lga_name":"Eti Osa","state_code":"LA","state_name":"Lagos"}},{"type":"Feature","id":"sv_fc_poi_govt_building.fid--3786de59_170540c0e31_4f12","geometry":{"type":"Point","coordinates":[3.6561,6.469]},"geometry_name":"geom","properties":{"geometry_type":"POINT","latitude":6.4690146787247755,"longitude":3.6561485233693314,"global_id":"cbeac38b-1fe8-4f3a-a7ab-58f0ad00efcd","name":"Lagos State Urban Forest and Animal Welfare Centres","alt_name":null,"ward_code":"LASEOA18","ward_name":"Sangotedo","lga_code":"25008","lga_name":"Eti Osa","state_code":"LA","state_name":"Lagos"}},{"type":"Feature","id":"sv_fc_poi_govt_building.fid--3786de59_170540c0e31_4f13","geometry":{"type":"Point","coordinates":[3.6324,6.4715]},"geometry_name":"geom","properties":{"geometry_type":"POINT","latitude":6.471452274365922,"longitude":3.632414665844069,"global_id":"bccbd1ed-fae5-42c8-9514-be5a4d4db895","name":"Eti Osa Local Government Council","alt_name":null,"ward_code":"LASEOA18","ward_name":"Sangotedo","lga_code":"25008","lga_name":"Eti Osa","state_code":"LA","state_name":"Lagos"}},{"type":"Feature","id":"sv_fc_poi_govt_building.fid--3786de59_170540c0e31_4f14","geometry":{"type":"Point","coordinates":[3.4096,6.4245]},"geometry_name":"geom","properties":{"geometry_type":"POINT","latitude":6.424513268549543,"longitude":3.409579302341142,"global_id":"c3d795f8-e169-4475-9c71-a74b05d939e6","name":"Nigeria Television Authority","alt_name":null,"ward_code":"LASEOA19","ward_name":"Tarkwa Bay","lga_code":"25008","lga_name":"Eti Osa","state_code":"LA","state_name":"Lagos"}},{"type":"Feature","id":"sv_fc_poi_govt_building.fid--3786de59_170540c0e31_4f15","geometry":{"type":"Point","coordinates":[3.4075,6.4366]},"geometry_name":"geom","properties":{"geometry_type":"POINT","latitude":6.43661913697038,"longitude":3.4075476363411403,"global_id":"4c167991-e33b-41b0-81fb-d1c56e928ccb","name":"Bonny Cantonment","alt_name":null,"ward_code":"LASEOA19","ward_name":"Tarkwa Bay","lga_code":"25008","lga_name":"Eti Osa","state_code":"LA","state_name":"Lagos"}},{"type":"Feature","id":"sv_fc_poi_govt_building.fid--3786de59_170540c0e31_4f16","geometry":{"type":"Point","coordinates":[3.409,6.4262]},"geometry_name":"geom","properties":{"geometry_type":"POINT","latitude":6.426169127681638,"longitude":3.4089899313845167,"global_id":"051f5d7b-a86b-40ce-9a2d-b9bb6642716f","name":"Nigerian Minting Service Corporation","alt_name":null,"ward_code":"LASEOA19","ward_name":"Tarkwa Bay","lga_code":"25008","lga_name":"Eti Osa","state_code":"LA","state_name":"Lagos"}},{"type":"Feature","id":"sv_fc_poi_govt_building.fid--3786de59_170540c0e31_4f17","geometry":{"type":"Point","coordinates":[3.4172,6.4238]},"geometry_name":"geom","properties":{"geometry_type":"POINT","latitude":6.423831435162066,"longitude":3.4171826817514637,"global_id":"aeb8101c-fd80-4fde-b1e9-a6139c2c270e","name":"Edo State Liasion Office","alt_name":null,"ward_code":"LASEOA20","ward_name":"Victoria Island","lga_code":"25008","lga_name":"Eti Osa","state_code":"LA","state_name":"Lagos"}},{"type":"Feature","id":"sv_fc_poi_govt_building.fid--3786de59_170540c0e31_4f18","geometry":{"type":"Point","coordinates":[3.4166,6.43]},"geometry_name":"geom","properties":{"geometry_type":"POINT","latitude":6.430046667,"longitude":3.416588333,"global_id":"154287fc-1274-4b85-9b70-c79ccf1d400f","name":"Postal Service","alt_name":null,"ward_code":"LASEOA20","ward_name":"Victoria Island","lga_code":"25008","lga_name":"Eti Osa","state_code":"LA","state_name":"Lagos"}},{"type":"Feature","id":"sv_fc_poi_govt_building.fid--3786de59_170540c0e31_4f19","geometry":{"type":"Point","coordinates":[3.4142,6.431]},"geometry_name":"geom","properties":{"geometry_type":"POINT","latitude":6.431008096796507,"longitude":3.4142330381125565,"global_id":"51d3d542-14d8-4d73-88e2-fb2aedfdbd02","name":"LSDPC","alt_name":null,"ward_code":"LASEOA20","ward_name":"Victoria Island","lga_code":"25008","lga_name":"Eti Osa","state_code":"LA","state_name":"Lagos"}},{"type":"Feature","id":"sv_fc_poi_govt_building.fid--3786de59_170540c0e31_4f1a","geometry":{"type":"Point","coordinates":[3.41,6.4397]},"geometry_name":"geom","properties":{"geometry_type":"POINT","latitude":6.439705295383319,"longitude":3.410035756352853,"global_id":"4baca446-c1e2-4149-bf7d-d65c6da963e5","name":"High Commission Of India","alt_name":null,"ward_code":"LASEOA20","ward_name":"Victoria Island","lga_code":"25008","lga_name":"Eti Osa","state_code":"LA","state_name":"Lagos"}},{"type":"Feature","id":"sv_fc_poi_govt_building.fid--3786de59_170540c0e31_4f1b","geometry":{"type":"Point","coordinates":[3.4099,6.4306]},"geometry_name":"geom","properties":{"geometry_type":"POINT","latitude":6.43059523341466,"longitude":3.4098589811776185,"global_id":"bbedaab2-2090-4413-ab72-2b33da55cdc1","name":"Benin Republic House","alt_name":null,"ward_code":"LASEOA20","ward_name":"Victoria Island","lga_code":"25008","lga_name":"Eti Osa","state_code":"LA","state_name":"Lagos"}},{"type":"Feature","id":"sv_fc_poi_govt_building.fid--3786de59_170540c0e31_4f1c","geometry":{"type":"Point","coordinates":[3.4107,6.4298]},"geometry_name":"geom","properties":{"geometry_type":"POINT","latitude":6.429764673637165,"longitude":3.410726689205162,"global_id":"6cbacea6-adf9-4cd6-857a-77be7d2a948d","name":"Kebbi State Government House","alt_name":null,"ward_code":"LASEOA20","ward_name":"Victoria Island","lga_code":"25008","lga_name":"Eti Osa","state_code":"LA","state_name":"Lagos"}},{"type":"Feature","id":"sv_fc_poi_govt_building.fid--3786de59_170540c0e31_4f1d","geometry":{"type":"Point","coordinates":[3.4224,6.4239]},"geometry_name":"geom","properties":{"geometry_type":"POINT","latitude":6.42387820152299,"longitude":3.422448722779007,"global_id":"db455536-da5b-4cc1-aaf4-6f656fbe4e21","name":"Nasarawa State Liasion Office","alt_name":null,"ward_code":"LASEOA20","ward_name":"Victoria Island","lga_code":"25008","lga_name":"Eti Osa","state_code":"LA","state_name":"Lagos"}},{"type":"Feature","id":"sv_fc_poi_govt_building.fid--3786de59_170540c0e31_4f1e","geometry":{"type":"Point","coordinates":[3.422,6.4241]},"geometry_name":"geom","properties":{"geometry_type":"POINT","latitude":6.424068333,"longitude":3.422001667,"global_id":"c29116f7-0f47-4a6d-b538-154754419935","name":"Bayelsa State Liasion Office Building","alt_name":null,"ward_code":"LASEOA20","ward_name":"Victoria Island","lga_code":"25008","lga_name":"Eti Osa","state_code":"LA","state_name":"Lagos"}},{"type":"Feature","id":"sv_fc_poi_govt_building.fid--3786de59_170540c0e31_4f1f","geometry":{"type":"Point","coordinates":[3.4216,6.4238]},"geometry_name":"geom","properties":{"geometry_type":"POINT","latitude":6.423827409987783,"longitude":3.421588840875732,"global_id":"abf36c95-f330-4dff-ae88-36d59f87b1eb","name":"Kaduna State Liasion Office","alt_name":null,"ward_code":"LASEOA20","ward_name":"Victoria Island","lga_code":"25008","lga_name":"Eti Osa","state_code":"LA","state_name":"Lagos"}},{"type":"Feature","id":"sv_fc_poi_govt_building.fid--3786de59_170540c0e31_4f20","geometry":{"type":"Point","coordinates":[3.4214,6.424]},"geometry_name":"geom","properties":{"geometry_type":"POINT","latitude":6.424023333,"longitude":3.421365,"global_id":"9250a8aa-a567-4961-ab3a-3dd0b5e74ff2","name":"Enugu State Liasion Office","alt_name":null,"ward_code":"LASEOA20","ward_name":"Victoria Island","lga_code":"25008","lga_name":"Eti Osa","state_code":"LA","state_name":"Lagos"}},{"type":"Feature","id":"sv_fc_poi_govt_building.fid--3786de59_170540c0e31_4f21","geometry":{"type":"Point","coordinates":[3.4207,6.4238]},"geometry_name":"geom","properties":{"geometry_type":"POINT","latitude":6.423773894800421,"longitude":3.420746522627196,"global_id":"9c096b2c-a474-47b4-9ecc-e063f1c506fc","name":"Niger State Liaison Office","alt_name":null,"ward_code":"LASEOA20","ward_name":"Victoria Island","lga_code":"25008","lga_name":"Eti Osa","state_code":"LA","state_name":"Lagos"}},{"type":"Feature","id":"sv_fc_poi_govt_building.fid--3786de59_170540c0e31_4f22","geometry":{"type":"Point","coordinates":[3.419,6.4236]},"geometry_name":"geom","properties":{"geometry_type":"POINT","latitude":6.42363519841814,"longitude":3.419031041027543,"global_id":"eefdeff1-d214-4b01-9db3-21e1bdbc73f7","name":"Adamawa State Liasion Office","alt_name":null,"ward_code":"LASEOA20","ward_name":"Victoria Island","lga_code":"25008","lga_name":"Eti Osa","state_code":"LA","state_name":"Lagos"}},{"type":"Feature","id":"sv_fc_poi_govt_building.fid--3786de59_170540c0e31_4f23","geometry":{"type":"Point","coordinates":[3.4167,6.4236]},"geometry_name":"geom","properties":{"geometry_type":"POINT","latitude":6.423564043538741,"longitude":3.4166994921242684,"global_id":"a7d9d0c6-ed09-4984-ab00-812a04b0b758","name":"Kogi State Liasion Office","alt_name":null,"ward_code":"LASEOA20","ward_name":"Victoria Island","lga_code":"25008","lga_name":"Eti Osa","state_code":"LA","state_name":"Lagos"}},{"type":"Feature","id":"sv_fc_poi_govt_building.fid--3786de59_170540c0e31_4f24","geometry":{"type":"Point","coordinates":[3.4153,6.4234]},"geometry_name":"geom","properties":{"geometry_type":"POINT","latitude":6.423408316804089,"longitude":3.415252147599653,"global_id":"9708271a-a9ab-4751-8dda-bb22476f5668","name":"Imo State Liasion Office","alt_name":null,"ward_code":"LASEOA20","ward_name":"Victoria Island","lga_code":"25008","lga_name":"Eti Osa","state_code":"LA","state_name":"Lagos"}},{"type":"Feature","id":"sv_fc_poi_govt_building.fid--3786de59_170540c0e31_4f25","geometry":{"type":"Point","coordinates":[3.415,6.4234]},"geometry_name":"geom","properties":{"geometry_type":"POINT","latitude":6.423406106268693,"longitude":3.415048454167643,"global_id":"e5100d01-3d73-45ca-92b9-8e8c77ac8c5e","name":"Benue State Laisison Office","alt_name":null,"ward_code":"LASEOA20","ward_name":"Victoria Island","lga_code":"25008","lga_name":"Eti Osa","state_code":"LA","state_name":"Lagos"}},{"type":"Feature","id":"sv_fc_poi_govt_building.fid--3786de59_170540c0e31_4f26","geometry":{"type":"Point","coordinates":[3.8909,6.4867]},"geometry_name":"geom","properties":{"geometry_type":"POINT","latitude":6.486659861577953,"longitude":3.890935646722184,"global_id":"4ca721d4-9126-42ee-b779-6633fe5ef1e9","name":"Local Government Education Authority","alt_name":null,"ward_code":"LASIUI01","ward_name":"Ibeju 1","lga_code":"25009","lga_name":"Ibeju Lekki","state_code":"LA","state_name":"Lagos"}},{"type":"Feature","id":"sv_fc_poi_govt_building.fid--3786de59_170540c0e31_4f27","geometry":{"type":"Point","coordinates":[3.7948,6.4801]},"geometry_name":"geom","properties":{"geometry_type":"POINT","latitude":6.480081603203484,"longitude":3.7947629401500746,"global_id":"d6c19c2f-9154-45f6-ab91-72f15d69d78e","name":"Military Zone","alt_name":null,"ward_code":"LASIUI02","ward_name":"Ibeju 2","lga_code":"25009","lga_name":"Ibeju Lekki","state_code":"LA","state_name":"Lagos"}},{"type":"Feature","id":"sv_fc_poi_govt_building.fid--3786de59_170540c0e31_4f28","geometry":{"type":"Point","coordinates":[3.8066,6.472]},"geometry_name":"geom","properties":{"geometry_type":"POINT","latitude":6.471992501475942,"longitude":3.8066025312368237,"global_id":"c6cc1b62-5727-45ca-a15c-c0c8d450950a","name":"Lagos State Central Sand and Granite Supplier Association","alt_name":null,"ward_code":"LASIUI02","ward_name":"Ibeju 2","lga_code":"25009","lga_name":"Ibeju Lekki","state_code":"LA","state_name":"Lagos"}},{"type":"Feature","id":"sv_fc_poi_govt_building.fid--3786de59_170540c0e31_4f29","geometry":{"type":"Point","coordinates":[3.7633,6.473]},"geometry_name":"geom","properties":{"geometry_type":"POINT","latitude":6.472970055852414,"longitude":3.7633257,"global_id":"7aa61909-d5cd-486b-b300-f0ba98cc1b84","name":"Iberekodo Building","alt_name":null,"ward_code":"LASIUI05","ward_name":"Iwerekun 2","lga_code":"25009","lga_name":"Ibeju Lekki","state_code":"LA","state_name":"Lagos"}},{"type":"Feature","id":"sv_fc_poi_govt_building.fid--3786de59_170540c0e31_4f2a","geometry":{"type":"Point","coordinates":[4.0785,6.4183]},"geometry_name":"geom","properties":{"geometry_type":"POINT","latitude":6.418334267991685,"longitude":4.078483818248537,"global_id":"ea38dbeb-e0a7-419f-94aa-733e3c969502","name":"Index Brook Land","alt_name":null,"ward_code":"LASIUI06","ward_name":"Lekki 1","lga_code":"25009","lga_name":"Ibeju Lekki","state_code":"LA","state_name":"Lagos"}},{"type":"Feature","id":"sv_fc_poi_govt_building.fid--3786de59_170540c0e31_4f2b","geometry":{"type":"Point","coordinates":[4.0758,6.4189]},"geometry_name":"geom","properties":{"geometry_type":"POINT","latitude":6.418936601102213,"longitude":4.07579151751464,"global_id":"deb821ba-d5e9-4224-a024-8e43cffb60e4","name":"State Government Land","alt_name":null,"ward_code":"LASIUI06","ward_name":"Lekki 1","lga_code":"25009","lga_name":"Ibeju Lekki","state_code":"LA","state_name":"Lagos"}},{"type":"Feature","id":"sv_fc_poi_govt_building.fid--3786de59_170540c0e31_4f2c","geometry":{"type":"Point","coordinates":[3.8889,6.4841]},"geometry_name":"geom","properties":{"geometry_type":"POINT","latitude":6.484084494661648,"longitude":3.8888631854044684,"global_id":"629ce4b5-1c9e-4c2f-951c-2eb598118701","name":"Prince Bayo Balagun Teacher House","alt_name":null,"ward_code":"LASIUI08","ward_name":"Orimedu 1","lga_code":"25009","lga_name":"Ibeju Lekki","state_code":"LA","state_name":"Lagos"}},{"type":"Feature","id":"sv_fc_poi_govt_building.fid--3786de59_170540c0e31_4f2d","geometry":{"type":"Point","coordinates":[3.9058,6.4417]},"geometry_name":"geom","properties":{"geometry_type":"POINT","latitude":6.441697543513389,"longitude":3.9057807569308185,"global_id":"9a0ff2d4-cd32-409c-942e-beed0b64f71c","name":"Orimedu Government Land","alt_name":null,"ward_code":"LASIUI08","ward_name":"Orimedu 1","lga_code":"25009","lga_name":"Ibeju Lekki","state_code":"LA","state_name":"Lagos"}},{"type":"Feature","id":"sv_fc_poi_govt_building.fid--3786de59_170540c0e31_4f2e","geometry":{"type":"Point","coordinates":[3.8902,6.4851]},"geometry_name":"geom","properties":{"geometry_type":"POINT","latitude":6.485056108788081,"longitude":3.890153154753847,"global_id":"8072e31f-5697-4d47-b555-ee135a5efe56","name":"NYSC Building","alt_name":null,"ward_code":"LASIUI08","ward_name":"Orimedu 1","lga_code":"25009","lga_name":"Ibeju Lekki","state_code":"LA","state_name":"Lagos"}},{"type":"Feature","id":"sv_fc_poi_govt_building.fid--3786de59_170540c0e31_4f2f","geometry":{"type":"Point","coordinates":[3.8077,6.4709]},"geometry_name":"geom","properties":{"geometry_type":"POINT","latitude":6.470878333,"longitude":3.807743333,"global_id":"2f0728f1-4418-4b6f-af0e-ba82d317f2b9","name":"Ibeju Lekki Local Government Secreteriat Igando Oloja","alt_name":null,"ward_code":"LASIUI10","ward_name":"Orimedu 3","lga_code":"25009","lga_name":"Ibeju Lekki","state_code":"LA","state_name":"Lagos"}},{"type":"Feature","id":"sv_fc_poi_govt_building.fid--3786de59_170540c0e31_4f30","geometry":{"type":"Point","coordinates":[3.8092,6.4702]},"geometry_name":"geom","properties":{"geometry_type":"POINT","latitude":6.4701947042951815,"longitude":3.8091642597104736,"global_id":"dd13835e-dafb-49b4-91ec-29e832d13c33","name":"Ministry Of Transportation Vehicle Inspection Service","alt_name":null,"ward_code":"LASIUI10","ward_name":"Orimedu 3","lga_code":"25009","lga_name":"Ibeju Lekki","state_code":"LA","state_name":"Lagos"}},{"type":"Feature","id":"sv_fc_poi_govt_building.fid--3786de59_170540c0e31_4f31","geometry":{"type":"Point","coordinates":[3.3176,6.6454]},"geometry_name":"geom","properties":{"geometry_type":"POINT","latitude":6.645387691115474,"longitude":3.317611735615484,"global_id":"79fe6a64-8b53-4764-8cc9-92639d7db74b","name":"Federal Ministry Of Agriculture and Rural Development Suco Road","alt_name":null,"ward_code":"LASIOE02","ward_name":"Agbado Dalemo","lga_code":"25010","lga_name":"Ifako/Ijaye","state_code":"LA","state_name":"Lagos"}},{"type":"Feature","id":"sv_fc_poi_govt_building.fid--3786de59_170540c0e31_4f32","geometry":{"type":"Point","coordinates":[3.3171,6.6455]},"geometry_name":"geom","properties":{"geometry_type":"POINT","latitude":6.645497367909627,"longitude":3.3170569840926047,"global_id":"8eadac8f-6beb-4f3e-a57d-63dde28c8229","name":"Lagos State Ministry Of Transportation Vehicle Inspection Unit Suco Road Oko-Oba","alt_name":null,"ward_code":"LASIOE02","ward_name":"Agbado Dalemo","lga_code":"25010","lga_name":"Ifako/Ijaye","state_code":"LA","state_name":"Lagos"}},{"type":"Feature","id":"sv_fc_poi_govt_building.fid--3786de59_170540c0e31_4f33","geometry":{"type":"Point","coordinates":[3.3256,6.6459]},"geometry_name":"geom","properties":{"geometry_type":"POINT","latitude":6.645949131235755,"longitude":3.325591705268486,"global_id":"4f240a03-2d6f-4e40-8b7c-8e21b066df0a","name":"Lagos State Independent Electoral Commission","alt_name":null,"ward_code":"LASIOE05","ward_name":"Ifako Pele","lga_code":"25010","lga_name":"Ifako/Ijaye","state_code":"LA","state_name":"Lagos"}},{"type":"Feature","id":"sv_fc_poi_govt_building.fid--3786de59_170540c0e31_4f34","geometry":{"type":"Point","coordinates":[3.3276,6.6435]},"geometry_name":"geom","properties":{"geometry_type":"POINT","latitude":6.643534821336334,"longitude":3.327638726849925,"global_id":"c7a399b6-d213-4d27-9ba7-1c222aa93fad","name":"Lagos State Internal Revenue Service","alt_name":null,"ward_code":"LASIOE06","ward_name":"Ifako/Coker","lga_code":"25010","lga_name":"Ifako/Ijaye","state_code":"LA","state_name":"Lagos"}},{"type":"Feature","id":"sv_fc_poi_govt_building.fid--3786de59_170540c0e31_4f35","geometry":{"type":"Point","coordinates":[3.29,6.6768]},"geometry_name":"geom","properties":{"geometry_type":"POINT","latitude":6.676802774693018,"longitude":3.289971545832357,"global_id":"efc50faf-1f61-4688-89e6-e4db914275ca","name":"Lagos State Government Neighborhood Office","alt_name":null,"ward_code":"LASIOE08","ward_name":"Ijaiye Ojokoro","lga_code":"25010","lga_name":"Ifako/Ijaye","state_code":"LA","state_name":"Lagos"}},{"type":"Feature","id":"sv_fc_poi_govt_building.fid--3786de59_170540c0e31_4f36","geometry":{"type":"Point","coordinates":[3.3281,6.6602]},"geometry_name":"geom","properties":{"geometry_type":"POINT","latitude":6.660243455832277,"longitude":3.3281137691893297,"global_id":"2f342770-29f2-4a5e-a4a5-4c38d723ab82","name":"Ifako Ijaiye Local Government","alt_name":null,"ward_code":"LASIOE12","ward_name":"Iju Obawole","lga_code":"25010","lga_name":"Ifako/Ijaye","state_code":"LA","state_name":"Lagos"}},{"type":"Feature","id":"sv_fc_poi_govt_building.fid--3786de59_170540c0e31_4f37","geometry":{"type":"Point","coordinates":[3.3574,6.6262]},"geometry_name":"geom","properties":{"geometry_type":"POINT","latitude":6.626231667,"longitude":3.3573662086055087,"global_id":"41913f0b-c654-4cb6-9292-86498759d43e","name":"Lagos State Parks and Gardens Agency","alt_name":null,"ward_code":"LASIKA02","ward_name":"Akiode","lga_code":"25011","lga_name":"Ikeja","state_code":"LA","state_name":"Lagos"}},{"type":"Feature","id":"sv_fc_poi_govt_building.fid--3786de59_170540c0e31_4f38","geometry":{"type":"Point","coordinates":[3.3552,6.6247]},"geometry_name":"geom","properties":{"geometry_type":"POINT","latitude":6.624745538158246,"longitude":3.3552468598540455,"global_id":"b70c7502-4878-4a29-95e6-4434b5ddf839","name":"Lagos State Infrastructure Maintenance and Regulatory Agency  Laslmra","alt_name":null,"ward_code":"LASIKA02","ward_name":"Akiode","lga_code":"25011","lga_name":"Ikeja","state_code":"LA","state_name":"Lagos"}},{"type":"Feature","id":"sv_fc_poi_govt_building.fid--3786de59_170540c0e31_4f39","geometry":{"type":"Point","coordinates":[3.3571,6.6259]},"geometry_name":"geom","properties":{"geometry_type":"POINT","latitude":6.625921507533889,"longitude":3.357098991390372,"global_id":"2dc4872f-d693-492f-97ba-45ae5971fb6f","name":"Lagos State Parks & Gardens Agency","alt_name":null,"ward_code":"LASIKA02","ward_name":"Akiode","lga_code":"25011","lga_name":"Ikeja","state_code":"LA","state_name":"Lagos"}},{"type":"Feature","id":"sv_fc_poi_govt_building.fid--3786de59_170540c0e31_4f3a","geometry":{"type":"Point","coordinates":[3.3638,6.6172]},"geometry_name":"geom","properties":{"geometry_type":"POINT","latitude":6.617225810878819,"longitude":3.3637640200994534,"global_id":"7f8072f1-3ab1-4b62-8010-771ec19f4f9f","name":"Lagos State Ministry Of Environment","alt_name":null,"ward_code":"LASIKA04","ward_name":"Alausa","lga_code":"25011","lga_name":"Ikeja","state_code":"LA","state_name":"Lagos"}},{"type":"Feature","id":"sv_fc_poi_govt_building.fid--3786de59_170540c0e31_4f3b","geometry":{"type":"Point","coordinates":[3.3586,6.6124]},"geometry_name":"geom","properties":{"geometry_type":"POINT","latitude":6.612371312921937,"longitude":3.3585597925241975,"global_id":"c42ab4a6-80db-45b0-b298-aa3278263496","name":"Lagos Digital Village","alt_name":null,"ward_code":"LASIKA04","ward_name":"Alausa","lga_code":"25011","lga_name":"Ikeja","state_code":"LA","state_name":"Lagos"}},{"type":"Feature","id":"sv_fc_poi_govt_building.fid--3786de59_170540c0e31_4f3c","geometry":{"type":"Point","coordinates":[3.3596,6.6128]},"geometry_name":"geom","properties":{"geometry_type":"POINT","latitude":6.6127524,"longitude":3.3596359,"global_id":"a67a421b-da06-4781-9149-a02c5c12a808","name":"Lagos State Government Motor Vehicle Administration Agency Mvaa","alt_name":null,"ward_code":"LASIKA04","ward_name":"Alausa","lga_code":"25011","lga_name":"Ikeja","state_code":"LA","state_name":"Lagos"}},{"type":"Feature","id":"sv_fc_poi_govt_building.fid--3786de59_170540c0e31_4f3d","geometry":{"type":"Point","coordinates":[3.3605,6.6165]},"geometry_name":"geom","properties":{"geometry_type":"POINT","latitude":6.616542218560211,"longitude":3.360518570010757,"global_id":"35a8ec0c-9666-4659-acff-69dece3f7772","name":"Lagos State Secretariat","alt_name":null,"ward_code":"LASIKA04","ward_name":"Alausa","lga_code":"25011","lga_name":"Ikeja","state_code":"LA","state_name":"Lagos"}},{"type":"Feature","id":"sv_fc_poi_govt_building.fid--3786de59_170540c0e31_4f3e","geometry":{"type":"Point","coordinates":[3.3653,6.6122]},"geometry_name":"geom","properties":{"geometry_type":"POINT","latitude":6.612222076318476,"longitude":3.3653049248019546,"global_id":"1a796dba-336e-4b4b-882c-9f1d190487c4","name":"Lagos House","alt_name":null,"ward_code":"LASIKA04","ward_name":"Alausa","lga_code":"25011","lga_name":"Ikeja","state_code":"LA","state_name":"Lagos"}},{"type":"Feature","id":"sv_fc_poi_govt_building.fid--3786de59_170540c0e31_4f3f","geometry":{"type":"Point","coordinates":[3.3647,6.6054]},"geometry_name":"geom","properties":{"geometry_type":"POINT","latitude":6.6054057174271446,"longitude":3.3646875314862403,"global_id":"9c90052d-1b99-4b1a-bd9a-5de5f3615c7d","name":"Lagos State House Of Assembly Service Commission","alt_name":null,"ward_code":"LASIKA04","ward_name":"Alausa","lga_code":"25011","lga_name":"Ikeja","state_code":"LA","state_name":"Lagos"}},{"type":"Feature","id":"sv_fc_poi_govt_building.fid--3786de59_170540c0e31_4f40","geometry":{"type":"Point","coordinates":[3.3608,6.613]},"geometry_name":"geom","properties":{"geometry_type":"POINT","latitude":6.613038380494159,"longitude":3.360810032617947,"global_id":"d5a5cebf-3af8-4876-b2b7-21ea2222fb73","name":"Lagos State Environmental Protection Agency","alt_name":null,"ward_code":"LASIKA04","ward_name":"Alausa","lga_code":"25011","lga_name":"Ikeja","state_code":"LA","state_name":"Lagos"}},{"type":"Feature","id":"sv_fc_poi_govt_building.fid--3786de59_170540c0e31_4f41","geometry":{"type":"Point","coordinates":[3.3529,6.6222]},"geometry_name":"geom","properties":{"geometry_type":"POINT","latitude":6.622231667,"longitude":3.352906667,"global_id":"00a74bfd-4035-4070-8e4a-9c4b1b1932a3","name":"Government Technical College Lagos","alt_name":null,"ward_code":"LASIKA04","ward_name":"Alausa","lga_code":"25011","lga_name":"Ikeja","state_code":"LA","state_name":"Lagos"}},{"type":"Feature","id":"sv_fc_poi_govt_building.fid--3786de59_170540c0e31_4f42","geometry":{"type":"Point","coordinates":[3.3589,6.616]},"geometry_name":"geom","properties":{"geometry_type":"POINT","latitude":6.61599400119717,"longitude":3.358882330552871,"global_id":"15126fcc-6668-4de2-8f4c-95ecdafd6dd7","name":"National Identity Management Commission","alt_name":null,"ward_code":"LASIKA04","ward_name":"Alausa","lga_code":"25011","lga_name":"Ikeja","state_code":"LA","state_name":"Lagos"}},{"type":"Feature","id":"sv_fc_poi_govt_building.fid--3786de59_170540c0e31_4f43","geometry":{"type":"Point","coordinates":[3.3554,6.6177]},"geometry_name":"geom","properties":{"geometry_type":"POINT","latitude":6.617694966551885,"longitude":3.3554224304946882,"global_id":"c57b99e0-bce4-45c5-a225-083d4308d2c4","name":"Nigerian Institute Of Surveys","alt_name":null,"ward_code":"LASIKA04","ward_name":"Alausa","lga_code":"25011","lga_name":"Ikeja","state_code":"LA","state_name":"Lagos"}},{"type":"Feature","id":"sv_fc_poi_govt_building.fid--3786de59_170540c0e31_4f44","geometry":{"type":"Point","coordinates":[3.3576,6.6206]},"geometry_name":"geom","properties":{"geometry_type":"POINT","latitude":6.6205923674478235,"longitude":3.3575946919632633,"global_id":"421bade0-1e95-4aa7-bc2c-ba07d4ef270a","name":"Lagos State Audit Service Commission","alt_name":null,"ward_code":"LASIKA04","ward_name":"Alausa","lga_code":"25011","lga_name":"Ikeja","state_code":"LA","state_name":"Lagos"}},{"type":"Feature","id":"sv_fc_poi_govt_building.fid--3786de59_170540c0e31_4f45","geometry":{"type":"Point","coordinates":[3.3569,6.6179]},"geometry_name":"geom","properties":{"geometry_type":"POINT","latitude":6.617894406253076,"longitude":3.3569354775287352,"global_id":"0def4f6a-f49e-4c51-be07-3ca4cb89556f","name":"Institutite Of Chartered Secretaries and Administrators Of Nigerian","alt_name":null,"ward_code":"LASIKA04","ward_name":"Alausa","lga_code":"25011","lga_name":"Ikeja","state_code":"LA","state_name":"Lagos"}},{"type":"Feature","id":"sv_fc_poi_govt_building.fid--3786de59_170540c0e31_4f46","geometry":{"type":"Point","coordinates":[3.3536,6.617]},"geometry_name":"geom","properties":{"geometry_type":"POINT","latitude":6.616984033664174,"longitude":3.3536017093394053,"global_id":"f89aecd2-b9a5-4041-ad23-bdd5121e416a","name":"LTV 8 Eko FM","alt_name":null,"ward_code":"LASIKA04","ward_name":"Alausa","lga_code":"25011","lga_name":"Ikeja","state_code":"LA","state_name":"Lagos"}},{"type":"Feature","id":"sv_fc_poi_govt_building.fid--3786de59_170540c0e31_4f47","geometry":{"type":"Point","coordinates":[3.3557,6.6194]},"geometry_name":"geom","properties":{"geometry_type":"POINT","latitude":6.619445322013238,"longitude":3.3557396173628287,"global_id":"c9ee8e7d-9d71-4bf0-a7ef-ffad0379209f","name":"Nigeria Immigrantion Services","alt_name":null,"ward_code":"LASIKA04","ward_name":"Alausa","lga_code":"25011","lga_name":"Ikeja","state_code":"LA","state_name":"Lagos"}},{"type":"Feature","id":"sv_fc_poi_govt_building.fid--3786de59_170540c0e31_4f48","geometry":{"type":"Point","coordinates":[3.3568,6.6167]},"geometry_name":"geom","properties":{"geometry_type":"POINT","latitude":6.616700078613279,"longitude":3.356797721019951,"global_id":"a26bbe72-d3e6-4da4-817f-5052c195e8f3","name":"Lagos Revenue House","alt_name":null,"ward_code":"LASIKA04","ward_name":"Alausa","lga_code":"25011","lga_name":"Ikeja","state_code":"LA","state_name":"Lagos"}},{"type":"Feature","id":"sv_fc_poi_govt_building.fid--3786de59_170540c0e31_4f49","geometry":{"type":"Point","coordinates":[3.3354,6.6011]},"geometry_name":"geom","properties":{"geometry_type":"POINT","latitude":6.601114160057043,"longitude":3.3354376322702235,"global_id":"93514e9d-46fd-4b60-a0c9-20747c749cd7","name":"Lagos State Waste Water Management Administrative Office","alt_name":null,"ward_code":"LASIKA05","ward_name":"Anifowoshe","lga_code":"25011","lga_name":"Ikeja","state_code":"LA","state_name":"Lagos"}},{"type":"Feature","id":"sv_fc_poi_govt_building.fid--3786de59_170540c0e31_4f4a","geometry":{"type":"Point","coordinates":[3.3364,6.596]},"geometry_name":"geom","properties":{"geometry_type":"POINT","latitude":6.5959881525993325,"longitude":3.3363992699232257,"global_id":"6bf8323a-ed7b-40e0-ae1d-3caa85372ba4","name":"Ikeja Local Government Building","alt_name":null,"ward_code":"LASIKA05","ward_name":"Anifowoshe","lga_code":"25011","lga_name":"Ikeja","state_code":"LA","state_name":"Lagos"}},{"type":"Feature","id":"sv_fc_poi_govt_building.fid--3786de59_170540c0e31_4f4b","geometry":{"type":"Point","coordinates":[3.3432,6.5863]},