{"type":"FeatureCollection","totalFeatures":108,"features":[{"type":"Feature","id":"sv_fc_poi_police_station.fid--3786de59_170540c0e31_3bad","geometry":{"type":"Point","coordinates":[3.3184,6.6101]},"geometry_name":"geom","properties":{"geometry_type":"POINT","latitude":6.610114917318309,"longitude":3.31842037555689,"global_id":"45045bee-c5a6-44d6-96aa-5e5ab137ba6a","name":"The Nigeria Police Force Dopemu Agege","ward_code":"LASAGG05","source":"GRID","ward_name":"Isale Oja","lga_code":"25001","lga_name":"Agege","state_code":"LA","state_name":"Lagos"}},{"type":"Feature","id":"sv_fc_poi_police_station.fid--3786de59_170540c0e31_3bae","geometry":{"type":"Point","coordinates":[3.3204,6.629]},"geometry_name":"geom","properties":{"geometry_type":"POINT","latitude":6.628979816889422,"longitude":3.320355122381811,"global_id":"00bcd9a1-3e3a-4611-a73a-bfdb44537737","name":"The Nigeria Police Station Elere Division","ward_code":"LASAGG07","source":"GRID","ward_name":"Okekoto","lga_code":"25001","lga_name":"Agege","state_code":"LA","state_name":"Lagos"}},{"type":"Feature","id":"sv_fc_poi_police_station.fid--3786de59_170540c0e31_3baf","geometry":{"type":"Point","coordinates":[3.3278,6.4611]},"geometry_name":"geom","properties":{"geometry_type":"POINT","latitude":6.461070689460738,"longitude":3.327806666666667,"global_id":"fd127244-c04a-4ec4-9764-4a98d0a1f158","name":"Layeni Police Station","ward_code":"LASATO14","source":"GRID","ward_name":"Owoyemi","lga_code":"25002","lga_name":"Ajeromi/Ifelodun","state_code":"LA","state_name":"Lagos"}},{"type":"Feature","id":"sv_fc_poi_police_station.fid--3786de59_170540c0e31_3bb0","geometry":{"type":"Point","coordinates":[3.2689,6.5515]},"geometry_name":"geom","properties":{"geometry_type":"POINT","latitude":6.551468970476763,"longitude":3.2688677400957533,"global_id":"1655d282-4388-4846-98c3-3193b1a476b8","name":"Ikotun Divisional Hq","ward_code":"LASAMO20","source":"GRID","ward_name":"Egbe-Liasu","lga_code":"25003","lga_name":"Alimosho","state_code":"LA","state_name":"Lagos"}},{"type":"Feature","id":"sv_fc_poi_police_station.fid--3786de59_170540c0e31_3bb1","geometry":{"type":"Point","coordinates":[3.2389,6.5511]},"geometry_name":"geom","properties":{"geometry_type":"POINT","latitude":6.5510648599375,"longitude":3.238934192379807,"global_id":"cc7332f1-5893-4f55-8327-5d1a74da7cdb","name":"Igando Police Station","ward_code":"LASAMO23","source":"GRID","ward_name":"Igando","lga_code":"25003","lga_name":"Alimosho","state_code":"LA","state_name":"Lagos"}},{"type":"Feature","id":"sv_fc_poi_police_station.fid--3786de59_170540c0e31_3bb2","geometry":{"type":"Point","coordinates":[3.2781,6.5165]},"geometry_name":"geom","properties":{"geometry_type":"POINT","latitude":6.516454947682692,"longitude":3.278064302127804,"global_id":"608b31eb-f8dd-4e27-af19-766a333d7a72","name":"Isheri Oshun Police Station","ward_code":"LASAMO27","source":"GRID","ward_name":"Isheri Oshun","lga_code":"25003","lga_name":"Alimosho","state_code":"LA","state_name":"Lagos"}},{"type":"Feature","id":"sv_fc_poi_police_station.fid--3786de59_170540c0e31_3bb3","geometry":{"type":"Point","coordinates":[3.2834,6.579]},"geometry_name":"geom","properties":{"geometry_type":"POINT","latitude":6.5789519679533255,"longitude":3.28337559323758,"global_id":"b9977235-5a24-46dc-a97b-7e587e6e75a7","name":"Idimu Police Station","ward_code":"LASAMO28","source":"GRID","ward_name":"Isheri-Olofin","lga_code":"25003","lga_name":"Alimosho","state_code":"LA","state_name":"Lagos"}},{"type":"Feature","id":"sv_fc_poi_police_station.fid--3786de59_170540c0e31_3bb4","geometry":{"type":"Point","coordinates":[3.3021,6.5895]},"geometry_name":"geom","properties":{"geometry_type":"POINT","latitude":6.589516230381011,"longitude":3.30208732996875,"global_id":"2f5ab920-3916-46be-8a44-e24260f08d8f","name":"Shasha","ward_code":"LASAMO30","source":"GRID","ward_name":"Oguntade/Bameke","lga_code":"25003","lga_name":"Alimosho","state_code":"LA","state_name":"Lagos"}},{"type":"Feature","id":"sv_fc_poi_police_station.fid--3786de59_170540c0e31_3bb5","geometry":{"type":"Point","coordinates":[3.2801,6.6318]},"geometry_name":"geom","properties":{"geometry_type":"POINT","latitude":6.631831335015624,"longitude":3.280121677239183,"global_id":"a05c6ec9-d3c6-4f7b-ab04-4d7f2bc43920","name":"Aboru Police Station","ward_code":"LASAMO31","source":"GRID","ward_name":"Oke-Odo","lga_code":"25003","lga_name":"Alimosho","state_code":"LA","state_name":"Lagos"}},{"type":"Feature","id":"sv_fc_poi_police_station.fid--3786de59_170540c0e31_3bb6","geometry":{"type":"Point","coordinates":[3.2946,6.462]},"geometry_name":"geom","properties":{"geometry_type":"POINT","latitude":6.462029686096154,"longitude":3.294585279333733,"global_id":"44cc989a-83bf-4fe2-b80b-2507550d4c44","name":"Area E Command Headquarters Festac Town","ward_code":"LASAON07","source":"GRID","ward_name":"Ifelodun","lga_code":"25004","lga_name":"Amuwo Odofin","state_code":"LA","state_name":"Lagos"}},{"type":"Feature","id":"sv_fc_poi_police_station.fid--3786de59_170540c0e31_3bb7","geometry":{"type":"Point","coordinates":[3.2707,6.4491]},"geometry_name":"geom","properties":{"geometry_type":"POINT","latitude":6.449063464126603,"longitude":3.2706698953653848,"global_id":"51a1460d-8870-4588-9084-f68476154213","name":"Satellite Police Post","ward_code":"LASAON08","source":"GRID","ward_name":"Ijegun","lga_code":"25004","lga_name":"Amuwo Odofin","state_code":"LA","state_name":"Lagos"}},{"type":"Feature","id":"sv_fc_poi_police_station.fid--3786de59_170540c0e31_3bb8","geometry":{"type":"Point","coordinates":[3.2729,6.454]},"geometry_name":"geom","properties":{"geometry_type":"POINT","latitude":6.454000156951923,"longitude":3.2729066405080123,"global_id":"5bd4e708-0413-4afd-8a27-b8e5ce3ca692","name":"Area L Police Command Headquarters","ward_code":"LASAON08","source":"GRID","ward_name":"Ijegun","lga_code":"25004","lga_name":"Amuwo Odofin","state_code":"LA","state_name":"Lagos"}},{"type":"Feature","id":"sv_fc_poi_police_station.fid--3786de59_170540c0e31_3bb9","geometry":{"type":"Point","coordinates":[3.3328,6.4254]},"geometry_name":"geom","properties":{"geometry_type":"POINT","latitude":6.425445357809696,"longitude":3.3328433856506408,"global_id":"988588f0-93a0-4f4c-a839-2b4ad5a6c893","name":"Igbologun Station","ward_code":"LASAON09","source":"GRID","ward_name":"Ilado Tomaro","lga_code":"25004","lga_name":"Amuwo Odofin","state_code":"LA","state_name":"Lagos"}},{"type":"Feature","id":"sv_fc_poi_police_station.fid--3786de59_170540c0e31_3bba","geometry":{"type":"Point","coordinates":[3.3112,6.4435]},"geometry_name":"geom","properties":{"geometry_type":"POINT","latitude":6.443499022794071,"longitude":3.311178494490986,"global_id":"3575d029-3854-4cd0-8164-e22d5901b20c","name":"NPF Kirikiri Police Post","ward_code":"LASAON11","source":"GRID","ward_name":"Kirikiri And Environ","lga_code":"25004","lga_name":"Amuwo Odofin","state_code":"LA","state_name":"Lagos"}},{"type":"Feature","id":"sv_fc_poi_police_station.fid--3786de59_170540c0e31_3bbb","geometry":{"type":"Point","coordinates":[3.2932,6.4586]},"geometry_name":"geom","properties":{"geometry_type":"POINT","latitude":6.458641386096154,"longitude":3.2931655776514424,"global_id":"f348393d-4e17-4c6a-9377-25f5a6e37d48","name":"Police Station 78","ward_code":"LASAON12","source":"GRID","ward_name":"Kuje","lga_code":"25004","lga_name":"Amuwo Odofin","state_code":"LA","state_name":"Lagos"}},{"type":"Feature","id":"sv_fc_poi_police_station.fid--3786de59_170540c0e31_3bbc","geometry":{"type":"Point","coordinates":[3.3921,6.4014]},"geometry_name":"geom","properties":{"geometry_type":"POINT","latitude":6.401409921524039,"longitude":3.3921168497772434,"global_id":"443106a6-5d8d-4d28-b05c-3f8c352a9576","name":"Police Station 44","ward_code":"LASAPA02","source":"GRID","ward_name":"Abraham Adesanya","lga_code":"25005","lga_name":"Apapa","state_code":"LA","state_name":"Lagos"}},{"type":"Feature","id":"sv_fc_poi_police_station.fid--3786de59_170540c0e31_3bbd","geometry":{"type":"Point","coordinates":[3.3674,6.4501]},"geometry_name":"geom","properties":{"geometry_type":"POINT","latitude":6.450089310539263,"longitude":3.367356339221354,"global_id":"2bc05d11-2feb-4442-90e1-1bc9398c8360","name":"Apapa Police Station","ward_code":"LASAPA04","source":"GRID","ward_name":"Anjorin","lga_code":"25005","lga_name":"Apapa","state_code":"LA","state_name":"Lagos"}},{"type":"Feature","id":"sv_fc_poi_police_station.fid--3786de59_170540c0e31_3bbe","geometry":{"type":"Point","coordinates":[3.3616,6.4687]},"geometry_name":"geom","properties":{"geometry_type":"POINT","latitude":6.468676335015626,"longitude":3.3615718717301686,"global_id":"05f2588c-33cc-4a80-9742-dd31a47e5178","name":"Ijora Badia Police Station Fadaini Street","ward_code":"LASAPA06","source":"GRID","ward_name":"Badia","lga_code":"25005","lga_name":"Apapa","state_code":"LA","state_name":"Lagos"}},{"type":"Feature","id":"sv_fc_poi_police_station.fid--3786de59_170540c0e31_3bbf","geometry":{"type":"Point","coordinates":[3.3518,6.4545]},"geometry_name":"geom","properties":{"geometry_type":"POINT","latitude":6.454509999999999,"longitude":3.3518333333333334,"global_id":"8891b126-960d-42e1-8909-bf335c4c9ea2","name":"Alayabiagba Police Station","ward_code":"LASAPA10","source":"GRID","ward_name":"Oduduwa","lga_code":"25005","lga_name":"Apapa","state_code":"LA","state_name":"Lagos"}},{"type":"Feature","id":"sv_fc_poi_police_station.fid--3786de59_170540c0e31_3bc0","geometry":{"type":"Point","coordinates":[3.3459,6.4782]},"geometry_name":"geom","properties":{"geometry_type":"POINT","latitude":6.478178970476762,"longitude":3.345868324921875,"global_id":"c8d5a8b3-06d8-4946-8e98-95ea35e6ac47","name":"Orile Police Stationsari Iganmu","ward_code":"LASAPA12","source":"GRID","ward_name":"Sari","lga_code":"25005","lga_name":"Apapa","state_code":"LA","state_name":"Lagos"}},{"type":"Feature","id":"sv_fc_poi_police_station.fid--3786de59_170540c0e31_3bc1","geometry":{"type":"Point","coordinates":[2.8909,6.4341]},"geometry_name":"geom","properties":{"geometry_type":"POINT","latitude":6.4341037257131415,"longitude":2.890856151905048,"global_id":"0703534c-da99-4dca-a017-8121e7409de9","name":"Ajara Police Post","ward_code":"LASBDY03","source":"GRID","ward_name":"Ajara Vetho","lga_code":"25006","lga_name":"Badagry","state_code":"LA","state_name":"Lagos"}},{"type":"Feature","id":"sv_fc_poi_police_station.fid--3786de59_170540c0e31_3bc2","geometry":{"type":"Point","coordinates":[2.8149,6.4297]},"geometry_name":"geom","properties":{"geometry_type":"POINT","latitude":6.429737635461137,"longitude":2.814852696189904,"global_id":"bd8148ee-d000-4cf2-8ad2-fcfd2a51208d","name":"Apa Police Station","ward_code":"LASBDY06","source":"GRID","ward_name":"Apa","lga_code":"25006","lga_name":"Badagry","state_code":"LA","state_name":"Lagos"}},{"type":"Feature","id":"sv_fc_poi_police_station.fid--3786de59_170540c0e31_3bc3","geometry":{"type":"Point","coordinates":[3.0981,6.501]},"geometry_name":"geom","properties":{"geometry_type":"POINT","latitude":6.501004999999999,"longitude":3.09812,"global_id":"dd089ac7-c93a-4587-8ec0-337295d732c3","name":"Divisional Police Head Quarters Agbara","ward_code":"LASBDY08","source":"GRID","ward_name":"Araromi-Ale","lga_code":"25006","lga_name":"Badagry","state_code":"LA","state_name":"Lagos"}},{"type":"Feature","id":"sv_fc_poi_police_station.fid--3786de59_170540c0e31_3bc4","geometry":{"type":"Point","coordinates":[3.0981,6.5011]},"geometry_name":"geom","properties":{"geometry_type":"POINT","latitude":6.501106972159055,"longitude":3.0980948472538063,"global_id":"206057c6-696a-4b88-ad01-c54e2a3df62c","name":"Agbara Police Station","ward_code":"LASBDY08","source":"GRID","ward_name":"Araromi-Ale","lga_code":"25006","lga_name":"Badagry","state_code":"LA","state_name":"Lagos"}},{"type":"Feature","id":"sv_fc_poi_police_station.fid--3786de59_170540c0e31_3bc5","geometry":{"type":"Point","coordinates":[3.0837,6.4949]},"geometry_name":"geom","properties":{"geometry_type":"POINT","latitude":6.494871805871394,"longitude":3.0836763004455126,"global_id":"be72bb7d-ffb5-4fa5-aa9c-6f5fec5b58cf","name":"Morogbo Police Station","ward_code":"LASBDY08","source":"GRID","ward_name":"Araromi-Ale","lga_code":"25006","lga_name":"Badagry","state_code":"LA","state_name":"Lagos"}},{"type":"Feature","id":"sv_fc_poi_police_station.fid--3786de59_170540c0e31_3bc6","geometry":{"type":"Point","coordinates":[2.7288,6.3842]},"geometry_name":"geom","properties":{"geometry_type":"POINT","latitude":6.384188857430689,"longitude":2.728848459920873,"global_id":"66228a0f-bf67-4c22-a89c-2131b3263bd0","name":"Seme Police Station","ward_code":"LASBDY10","source":"GRID","ward_name":"Gbethrome","lga_code":"25006","lga_name":"Badagry","state_code":"LA","state_name":"Lagos"}},{"type":"Feature","id":"sv_fc_poi_police_station.fid--3786de59_170540c0e31_3bc7","geometry":{"type":"Point","coordinates":[3.0389,6.4837]},"geometry_name":"geom","properties":{"geometry_type":"POINT","latitude":6.483738264193109,"longitude":3.0388948253008814,"global_id":"68d4d1e1-da29-49a6-b6c2-220fe3e8f30d","name":"Area K Police Station","ward_code":"LASBDY11","source":"GRID","ward_name":"Ibereko","lga_code":"25006","lga_name":"Badagry","state_code":"LA","state_name":"Lagos"}},{"type":"Feature","id":"sv_fc_poi_police_station.fid--3786de59_170540c0e31_3bc8","geometry":{"type":"Point","coordinates":[2.8929,6.4127]},"geometry_name":"geom","properties":{"geometry_type":"POINT","latitude":6.4126729409535255,"longitude":2.89293940676242,"global_id":"347836b2-b155-40b1-8f86-45414b3e617b","name":"Badagry Divisional Police","ward_code":"LASBDY16","source":"GRID","ward_name":"Jegba Quarters","lga_code":"25006","lga_name":"Badagry","state_code":"LA","state_name":"Lagos"}},{"type":"Feature","id":"sv_fc_poi_police_station.fid--3786de59_170540c0e31_3bc9","geometry":{"type":"Point","coordinates":[3.8759,6.6374]},"geometry_name":"geom","properties":{"geometry_type":"POINT","latitude":6.6373931,"longitude":3.8758529,"global_id":"9e97f76c-f024-4847-b5c9-1d3cffed79b2","name":"Ketu Ereyun Police Post","ward_code":"LASEPE07","source":"GRID","ward_name":"Ejirin/Ketu","lga_code":"25007","lga_name":"Epe","state_code":"LA","state_name":"Lagos"}},{"type":"Feature","id":"sv_fc_poi_police_station.fid--3786de59_170540c0e31_3bca","geometry":{"type":"Point","coordinates":[3.9892,6.6482]},"geometry_name":"geom","properties":{"geometry_type":"POINT","latitude":6.648215626158653,"longitude":3.989168266221154,"global_id":"855af846-d458-4abe-a4cb-88eb80446fa6","name":"Eredo Police Station","ward_code":"LASEPE15","source":"GRID","ward_name":"Odoragunsin","lga_code":"25007","lga_name":"Epe","state_code":"LA","state_name":"Lagos"}},{"type":"Feature","id":"sv_fc_poi_police_station.fid--3786de59_170540c0e31_3bcb","geometry":{"type":"Point","coordinates":[4.2119,6.4171]},"geometry_name":"geom","properties":{"geometry_type":"POINT","latitude":6.417147522415065,"longitude":4.211947460762019,"global_id":"9c44fd72-b0c8-41aa-a5b9-1aa10fa02354","name":"Police Station 9","ward_code":"LASEPE16","source":"GRID","ward_name":"Olugbokere/Abomiti","lga_code":"25007","lga_name":"Epe","state_code":"LA","state_name":"Lagos"}},{"type":"Feature","id":"sv_fc_poi_police_station.fid--3786de59_170540c0e31_3bcc","geometry":{"type":"Point","coordinates":[3.773,6.6313]},"geometry_name":"geom","properties":{"geometry_type":"POINT","latitude":6.631293787366186,"longitude":3.772953804189102,"global_id":"ae016dc5-d429-4b3c-91e6-dd7976a0288e","name":"Orugbo Police Post","ward_code":"LASEPE17","source":"GRID","ward_name":"Owu/Ota","lga_code":"25007","lga_name":"Epe","state_code":"LA","state_name":"Lagos"}},{"type":"Feature","id":"sv_fc_poi_police_station.fid--3786de59_170540c0e31_3bcd","geometry":{"type":"Point","coordinates":[3.5773,6.4699]},"geometry_name":"geom","properties":{"geometry_type":"POINT","latitude":6.469927426191908,"longitude":3.5772942498104965,"global_id":"3f5c7fd5-5ed9-42cd-82b1-a950d694e5a6","name":"Ajah Police Station","ward_code":"LASEOA03","source":"GRID","ward_name":"Ajah","lga_code":"25008","lga_name":"Eti Osa","state_code":"LA","state_name":"Lagos"}},{"type":"Feature","id":"sv_fc_poi_police_station.fid--3786de59_170540c0e31_3bce","geometry":{"type":"Point","coordinates":[3.4288,6.4437]},"geometry_name":"geom","properties":{"geometry_type":"POINT","latitude":6.443733673395834,"longitude":3.428779668348958,"global_id":"c35163c1-385b-42a7-9208-9da53020c96c","name":"Nigerian Police Stationmedical Service","ward_code":"LASEOA07","source":"GRID","ward_name":"Falomo/Oyinkan Abayomi","lga_code":"25008","lga_name":"Eti Osa","state_code":"LA","state_name":"Lagos"}},{"type":"Feature","id":"sv_fc_poi_police_station.fid--3786de59_170540c0e31_3bcf","geometry":{"type":"Point","coordinates":[3.469,6.4332]},"geometry_name":"geom","properties":{"geometry_type":"POINT","latitude":6.4332273822860575,"longitude":3.468993071746795,"global_id":"7e6c9a10-1611-4406-8733-4f769084cb5d","name":"Maruwa Police Station","ward_code":"LASEOA10","source":"GRID","ward_name":"Ikate/Lekki","lga_code":"25008","lga_name":"Eti Osa","state_code":"LA","state_name":"Lagos"}},{"type":"Feature","id":"sv_fc_poi_police_station.fid--3786de59_170540c0e31_3bd0","geometry":{"type":"Point","coordinates":[3.5031,6.4335]},"geometry_name":"geom","properties":{"geometry_type":"POINT","latitude":6.4334854017155445,"longitude":3.503111308856971,"global_id":"f5102d60-efc0-42fd-9578-3988b812e9c8","name":"Ilasan Police Station","ward_code":"LASEOA13","source":"GRID","ward_name":"Ilasan/Orile","lga_code":"25008","lga_name":"Eti Osa","state_code":"LA","state_name":"Lagos"}},{"type":"Feature","id":"sv_fc_poi_police_station.fid--3786de59_170540c0e31_3bd1","geometry":{"type":"Point","coordinates":[3.6116,6.4487]},"geometry_name":"geom","properties":{"geometry_type":"POINT","latitude":6.44866157044351,"longitude":3.6116360472704323,"global_id":"3e4af346-eefc-4583-8ae2-3ef01bd0f899","name":"Ogombo Police Station","ward_code":"LASEOA17","source":"GRID","ward_name":"Okun Ajah/Okunmopo","lga_code":"25008","lga_name":"Eti Osa","state_code":"LA","state_name":"Lagos"}},{"type":"Feature","id":"sv_fc_poi_police_station.fid--3786de59_170540c0e31_3bd2","geometry":{"type":"Point","coordinates":[3.4117,6.4229]},"geometry_name":"geom","properties":{"geometry_type":"POINT","latitude":6.4229037957776445,"longitude":3.4116780278409453,"global_id":"2a13a13e-ea6c-48d4-9528-a9968eda47f9","name":"NPF Divisional HQ Victoria Island","ward_code":"LASEOA20","source":"GRID","ward_name":"Victoria Island","lga_code":"25008","lga_name":"Eti Osa","state_code":"LA","state_name":"Lagos"}},{"type":"Feature","id":"sv_fc_poi_police_station.fid--3786de59_170540c0e31_3bd3","geometry":{"type":"Point","coordinates":[3.8572,6.4837]},"geometry_name":"geom","properties":{"geometry_type":"POINT","latitude":6.483657950289263,"longitude":3.8572447813950324,"global_id":"c0b8a094-5717-4c94-83ad-fe8850ef30f9","name":"Pan Atlantic Police Post","ward_code":"LASIUI02","source":"GRID","ward_name":"Ibeju 2","lga_code":"25009","lga_name":"Ibeju Lekki","state_code":"LA","state_name":"Lagos"}},{"type":"Feature","id":"sv_fc_poi_police_station.fid--3786de59_170540c0e31_3bd4","geometry":{"type":"Point","coordinates":[3.6661,6.4529]},"geometry_name":"geom","properties":{"geometry_type":"POINT","latitude":6.452945942635818,"longitude":3.6661472860629005,"global_id":"b03decba-dde3-40ff-9c0e-1796413fa654","name":"Abijo Police Station","ward_code":"LASIUI04","source":"GRID","ward_name":"Iwerekun 1","lga_code":"25009","lga_name":"Ibeju Lekki","state_code":"LA","state_name":"Lagos"}},{"type":"Feature","id":"sv_fc_poi_police_station.fid--3786de59_170540c0e31_3bd5","geometry":{"type":"Point","coordinates":[3.7551,6.4753]},"geometry_name":"geom","properties":{"geometry_type":"POINT","latitude":6.475277202061298,"longitude":3.7551433426358174,"global_id":"21811f2c-8fff-4093-8e2b-4f69cf51b282","name":"Elemoro Police Station","ward_code":"LASIUI05","source":"GRID","ward_name":"Iwerekun 2","lga_code":"25009","lga_name":"Ibeju Lekki","state_code":"LA","state_name":"Lagos"}},{"type":"Feature","id":"sv_fc_poi_police_station.fid--3786de59_170540c0e31_3bd6","geometry":{"type":"Point","coordinates":[4.0953,6.4145]},"geometry_name":"geom","properties":{"geometry_type":"POINT","latitude":6.414473734124598,"longitude":4.095287591555288,"global_id":"b8072ba1-6aed-46a5-b194-e04e2335bc06","name":"Lekki Police Post","ward_code":"LASIUI06","source":"GRID","ward_name":"Lekki 1","lga_code":"25009","lga_name":"Ibeju Lekki","state_code":"LA","state_name":"Lagos"}},{"type":"Feature","id":"sv_fc_poi_police_station.fid--3786de59_170540c0e31_3bd7","geometry":{"type":"Point","coordinates":[3.9492,6.4373]},"geometry_name":"geom","properties":{"geometry_type":"POINT","latitude":6.437251780637021,"longitude":3.94915084641266,"global_id":"65021053-8983-415c-84b1-6b6fa140387a","name":"Akodo Police Station","ward_code":"LASIUI07","source":"GRID","ward_name":"Lekki 2","lga_code":"25009","lga_name":"Ibeju Lekki","state_code":"LA","state_name":"Lagos"}},{"type":"Feature","id":"sv_fc_poi_police_station.fid--3786de59_170540c0e31_3bd8","geometry":{"type":"Point","coordinates":[3.9389,6.4375]},"geometry_name":"geom","properties":{"geometry_type":"POINT","latitude":6.437500218604967,"longitude":3.938895767936699,"global_id":"107c1943-a126-41f7-b262-eb55de06cd75","name":"NPF Mopol 49 Akodo Old Secteriat","ward_code":"LASIUI08","source":"GRID","ward_name":"Orimedu 1","lga_code":"25009","lga_name":"Ibeju Lekki","state_code":"LA","state_name":"Lagos"}},{"type":"Feature","id":"sv_fc_poi_police_station.fid--3786de59_170540c0e31_3bd9","geometry":{"type":"Point","coordinates":[3.8538,6.4412]},"geometry_name":"geom","properties":{"geometry_type":"POINT","latitude":6.441172460762021,"longitude":3.853764432921074,"global_id":"febb7657-fea8-4fdb-a774-eb5560472b31","name":"Eleko Police Post","ward_code":"LASIUI09","source":"GRID","ward_name":"Orimedu 2","lga_code":"25009","lga_name":"Ibeju Lekki","state_code":"LA","state_name":"Lagos"}},{"type":"Feature","id":"sv_fc_poi_police_station.fid--3786de59_170540c0e31_3bda","geometry":{"type":"Point","coordinates":[3.3235,6.6505]},"geometry_name":"geom","properties":{"geometry_type":"POINT","latitude":6.650454101270032,"longitude":3.323472687778446,"global_id":"5921761c-8e5e-4024-bb48-227fafb0b01e","name":"Olowosokodile Police Post","ward_code":"LASIOE05","source":"GRID","ward_name":"Ifako Pele","lga_code":"25010","lga_name":"Ifako/Ijaye","state_code":"LA","state_name":"Lagos"}},{"type":"Feature","id":"sv_fc_poi_police_station.fid--3786de59_170540c0e31_3bdb","geometry":{"type":"Point","coordinates":[3.361,6.6182]},"geometry_name":"geom","properties":{"geometry_type":"POINT","latitude":6.618232818571714,"longitude":3.3609921291109774,"global_id":"288e4fd4-d30a-460e-a405-93e8ea0bf822","name":"Alausa Divisional Headquarters","ward_code":"LASIKA04","source":"GRID","ward_name":"Alausa","lga_code":"25011","lga_name":"Ikeja","state_code":"LA","state_name":"Lagos"}},{"type":"Feature","id":"sv_fc_poi_police_station.fid--3786de59_170540c0e31_3bdc","geometry":{"type":"Point","coordinates":[3.362,6.615]},"geometry_name":"geom","properties":{"geometry_type":"POINT","latitude":6.614992251492788,"longitude":3.3619761519050475,"global_id":"09e4c5f4-f74f-4c79-8153-0010b7ff53f4","name":"Lagos State Police Command HQ Rapid Response Squad","ward_code":"LASIKA04","source":"GRID","ward_name":"Alausa","lga_code":"25011","lga_name":"Ikeja","state_code":"LA","state_name":"Lagos"}},{"type":"Feature","id":"sv_fc_poi_police_station.fid--3786de59_170540c0e31_3bdd","geometry":{"type":"Point","coordinates":[3.3369,6.5958]},"geometry_name":"geom","properties":{"geometry_type":"POINT","latitude":6.595783490285257,"longitude":3.336936178063702,"global_id":"b0b264a1-33c6-4b88-a2dc-21cd914944be","name":"Obafemi Awolowo Road Police Station","ward_code":"LASIKA05","source":"GRID","ward_name":"Anifowoshe","lga_code":"25011","lga_name":"Ikeja","state_code":"LA","state_name":"Lagos"}},{"type":"Feature","id":"sv_fc_poi_police_station.fid--3786de59_170540c0e31_3bde","geometry":{"type":"Point","coordinates":[3.3564,6.578]},"geometry_name":"geom","properties":{"geometry_type":"POINT","latitude":6.577979476826923,"longitude":3.3563784902852567,"global_id":"2bb9e22d-64c5-4f94-a820-e3a444cb3068","name":"Police Officers Mess","ward_code":"LASIKA06","source":"GRID","ward_name":"G R A","lga_code":"25011","lga_name":"Ikeja","state_code":"LA","state_name":"Lagos"}},{"type":"Feature","id":"sv_fc_poi_police_station.fid--3786de59_170540c0e31_3bdf","geometry":{"type":"Point","coordinates":[3.3451,6.5897]},"geometry_name":"geom","properties":{"geometry_type":"POINT","latitude":6.589697115552884,"longitude":3.345062004634616,"global_id":"5368c400-bdc0-4fc5-8cbe-7f80f5601563","name":"Ikeja Area f Command","ward_code":"LASIKA06","source":"GRID","ward_name":"G R A","lga_code":"25011","lga_name":"Ikeja","state_code":"LA","state_name":"Lagos"}},{"type":"Feature","id":"sv_fc_poi_police_station.fid--3786de59_170540c0e31_3be0","geometry":{"type":"Point","coordinates":[3.3441,6.5856]},"geometry_name":"geom","properties":{"geometry_type":"POINT","latitude":6.585599659937499,"longitude":3.344101125746394,"global_id":"eb10e799-6ec5-43d5-bcc6-2f380047da78","name":"Lagos State Police Command","ward_code":"LASIKA06","source":"GRID","ward_name":"G R A","lga_code":"25011","lga_name":"Ikeja","state_code":"LA","state_name":"Lagos"}},{"type":"Feature","id":"sv_fc_poi_police_station.fid--3786de59_170540c0e31_3be1","geometry":{"type":"Point","coordinates":[3.3583,6.6402]},"geometry_name":"geom","properties":{"geometry_type":"POINT","latitude":6.640159007207933,"longitude":3.3582925380012023,"global_id":"1ab483b5-13d3-47ad-90a2-88b454d3721d","name":"Ojodu Police Station","ward_code":"LASIKA08","source":"GRID","ward_name":"Ojodu","lga_code":"25011","lga_name":"Ikeja","state_code":"LA","state_name":"Lagos"}},{"type":"Feature","id":"sv_fc_poi_police_station.fid--3786de59_170540c0e31_3be2","geometry":{"type":"Point","coordinates":[3.3733,6.5868]},"geometry_name":"geom","properties":{"geometry_type":"POINT","latitude":6.586827861174279,"longitude":3.37334087003125,"global_id":"297caa2b-72b7-4c59-a070-51a50a14ba6c","name":"Nigeria Police Olusosun Post","ward_code":"LASIKA11","source":"GRID","ward_name":"Olusosun","lga_code":"25011","lga_name":"Ikeja","state_code":"LA","state_name":"Lagos"}},{"type":"Feature","id":"sv_fc_poi_police_station.fid--3786de59_170540c0e31_3be3","geometry":{"type":"Point","coordinates":[3.3352,6.5898]},"geometry_name":"geom","properties":{"geometry_type":"POINT","latitude":6.589754939271235,"longitude":3.3351512826983174,"global_id":"4790fa73-c580-42bd-b5d2-b591b3690718","name":"Police Post","ward_code":"LASIKA13","source":"GRID","ward_name":"Onilekere","lga_code":"25011","lga_name":"Ikeja","state_code":"LA","state_name":"Lagos"}},{"type":"Feature","id":"sv_fc_poi_police_station.fid--3786de59_170540c0e31_3be4","geometry":{"type":"Point","coordinates":[3.3238,6.6054]},"geometry_name":"geom","properties":{"geometry_type":"POINT","latitude":6.605388560349759,"longitude":3.323828952729567,"global_id":"3285feea-7fc6-4857-aeba-a254a0bed30b","name":"Onipetesi Police Post","ward_code":"LASIKA13","source":"GRID","ward_name":"Onilekere","lga_code":"25011","lga_name":"Ikeja","state_code":"LA","state_name":"Lagos"}},{"type":"Feature","id":"sv_fc_poi_police_station.fid--3786de59_170540c0e31_3be5","geometry":{"type":"Point","coordinates":[3.355,6.5902]},"geometry_name":"geom","properties":{"geometry_type":"POINT","latitude":6.590202042223558,"longitude":3.3550145553028843,"global_id":"6bec6462-4255-4251-848e-a5c2da528453","name":"NPF Police B Department Ikeja HQ Annex","ward_code":"LASIKA14","source":"GRID","ward_name":"Opebi","lga_code":"25011","lga_name":"Ikeja","state_code":"LA","state_name":"Lagos"}},{"type":"Feature","id":"sv_fc_poi_police_station.fid--3786de59_170540c0e31_3be6","geometry":{"type":"Point","coordinates":[3.3634,6.6033]},"geometry_name":"geom","properties":{"geometry_type":"POINT","latitude":6.603311849777245,"longitude":3.3633526616197917,"global_id":"da2b3ae3-c2db-497f-aa8d-d08f308653c8","name":"Oregun Police Post","ward_code":"LASIKA15","source":"GRID","ward_name":"Oregun","lga_code":"25011","lga_name":"Ikeja","state_code":"LA","state_name":"Lagos"}},{"type":"Feature","id":"sv_fc_poi_police_station.fid--3786de59_170540c0e31_3be7","geometry":{"type":"Point","coordinates":[3.3401,6.6048]},"geometry_name":"geom","properties":{"geometry_type":"POINT","latitude":6.6048,"longitude":3.340141666666667,"global_id":"641501ea-ad09-4fb0-b1de-cdf3288f354e","name":"Eleruwa Police Stationwemabod Estate","ward_code":"LASIKA17","source":"GRID","ward_name":"Seriki-Aro","lga_code":"25011","lga_name":"Ikeja","state_code":"LA","state_name":"Lagos"}},{"type":"Feature","id":"sv_fc_poi_police_station.fid--3786de59_170540c0e31_3be8","geometry":{"type":"Point","coordinates":[3.518,6.5897]},"geometry_name":"geom","properties":{"geometry_type":"POINT","latitude":6.589695480191506,"longitude":3.5180027400957528,"global_id":"ddc05a46-96c4-474b-8999-6cb8c6ff49f4","name":"Police Mobile Force No 63 Pmf Squadron","ward_code":"LASIKU01","source":"GRID","ward_name":"Abosan","lga_code":"25012","lga_name":"Ikorodu","state_code":"LA","state_name":"Lagos"}},{"type":"Feature","id":"sv_fc_poi_police_station.fid--3786de59_170540c0e31_3be9","geometry":{"type":"Point","coordinates":[3.4825,6.5701]},"geometry_name":"geom","properties":{"geometry_type":"POINT","latitude":6.570144214316106,"longitude":3.4824560033645833,"global_id":"41644232-ecae-49b9-a204-600f27c107e9","name":"Nichemtex Police Station","ward_code":"LASIKU01","source":"GRID","ward_name":"Abosan","lga_code":"25012","lga_name":"Ikorodu","state_code":"LA","state_name":"Lagos"}},{"type":"Feature","id":"sv_fc_poi_police_station.fid--3786de59_170540c0e31_3bea","geometry":{"type":"Point","coordinates":[3.5134,6.6085]},"geometry_name":"geom","properties":{"geometry_type":"POINT","latitude":6.60849280082452,"longitude":3.513413795777644,"global_id":"ec2a8db0-b0f7-4c1f-a80c-70b209af94a6","name":"Igbogbo Police Station","ward_code":"LASIKU02","source":"GRID","ward_name":"Aga/Ijomu","lga_code":"25012","lga_name":"Ikorodu","state_code":"LA","state_name":"Lagos"}},{"type":"Feature","id":"sv_fc_poi_police_station.fid--3786de59_170540c0e31_3beb","geometry":{"type":"Point","coordinates":[3.5353,6.6792]},"geometry_name":"geom","properties":{"geometry_type":"POINT","latitude":6.679167605459134,"longitude":3.535338438825721,"global_id":"be72e8ba-e972-4d29-8070-5ed7b1c695fe","name":"Industrial Police Post","ward_code":"LASIKU03","source":"GRID","ward_name":"Agbala/ Lasunwon","lga_code":"25012","lga_name":"Ikorodu","state_code":"LA","state_name":"Lagos"}},{"type":"Feature","id":"sv_fc_poi_police_station.fid--3786de59_170540c0e31_3bec","geometry":{"type":"Point","coordinates":[3.6043,6.6164]},"geometry_name":"geom","properties":{"geometry_type":"POINT","latitude":6.616447800824519,"longitude":3.6042732202872605,"global_id":"5da40101-abe1-42e5-835f-b8bc2cd48fb4","name":"Imowo Nla Police Station","ward_code":"LASIKU04","source":"GRID","ward_name":"Agura/Gberigbe","lga_code":"25012","lga_name":"Ikorodu","state_code":"LA","state_name":"Lagos"}},{"type":"Feature","id":"sv_fc_poi_police_station.fid--3786de59_170540c0e31_3bed","geometry":{"type":"Point","coordinates":[3.5645,6.6241]},"geometry_name":"geom","properties":{"geometry_type":"POINT","latitude":6.624074835840145,"longitude":3.564517194953125,"global_id":"b548d3c6-1473-464f-a32c-959570e4db64","name":"Ladegboye Police Post","ward_code":"LASIKU04","source":"GRID","ward_name":"Agura/Gberigbe","lga_code":"25012","lga_name":"Ikorodu","state_code":"LA","state_name":"Lagos"}},{"type":"Feature","id":"sv_fc_poi_police_station.fid--3786de59_170540c0e31_3bee","geometry":{"type":"Point","coordinates":[3.5014,6.6549]},"geometry_name":"geom","properties":{"geometry_type":"POINT","latitude":6.654851640508014,"longitude":3.5014177746658652,"global_id":"5d0c0fa1-7278-43e4-8b00-d5823787a6a2","name":"Rofo Police Post","ward_code":"LASIKU06","source":"GRID","ward_name":"Ajaguro","lga_code":"25012","lga_name":"Ikorodu","state_code":"LA","state_name":"Lagos"}},{"type":"Feature","id":"sv_fc_poi_police_station.fid--3786de59_170540c0e31_3bef","geometry":{"type":"Point","coordinates":[3.6693,6.6576]},"geometry_name":"geom","properties":{"geometry_type":"POINT","latitude":6.657621849777244,"longitude":3.6693167628898244,"global_id":"91808042-5dce-4e15-8fdc-c1c69f9d94fd","name":"Imota Police Station Ebute Ajebo Road Imota","ward_code":"LASIKU14","source":"GRID","ward_name":"Igbokuta/Oke-Agbo/Igbalu","lga_code":"25012","lga_name":"Ikorodu","state_code":"LA","state_name":"Lagos"}},{"type":"Feature","id":"sv_fc_poi_police_station.fid--3786de59_170540c0e31_3bf0","geometry":{"type":"Point","coordinates":[3.589,6.5662]},"geometry_name":"geom","properties":{"geometry_type":"POINT","latitude":6.56621792320633,"longitude":3.5890163611742794,"global_id":"fbdf2d0b-1c9f-408d-93f0-f1b6eb9a2343","name":"Area N Command Ijede Police Station","ward_code":"LASIKU25","source":"GRID","ward_name":"Oke-Oyinbo/ Aiyetoro","lga_code":"25012","lga_name":"Ikorodu","state_code":"LA","state_name":"Lagos"}},{"type":"Feature","id":"sv_fc_poi_police_station.fid--3786de59_170540c0e31_3bf1","geometry":{"type":"Point","coordinates":[3.4806,6.6406]},"geometry_name":"geom","properties":{"geometry_type":"POINT","latitude":6.640626640508012,"longitude":3.480576465808894,"global_id":"5bc02d36-e90c-4609-b603-9595e3085282","name":"Owutu Police Station","ward_code":"LASIKU28","source":"GRID","ward_name":"Owutu","lga_code":"25012","lga_name":"Ikorodu","state_code":"LA","state_name":"Lagos"}},{"type":"Feature","id":"sv_fc_poi_police_station.fid--3786de59_170540c0e31_3bf2","geometry":{"type":"Point","coordinates":[3.4151,6.6064]},"geometry_name":"geom","properties":{"geometry_type":"POINT","latitude":6.606404616031651,"longitude":3.4150832286987187,"global_id":"98b6949d-e156-49bd-9683-6fb54af3aa9e","name":"Owode Onirin Police Station","ward_code":"LASKSE14","source":"GRID","ward_name":"Odo-Ogun/Ajegunle","lga_code":"25013","lga_name":"Kosofe","state_code":"LA","state_name":"Lagos"}},{"type":"Feature","id":"sv_fc_poi_police_station.fid--3786de59_170540c0e31_3bf3","geometry":{"type":"Point","coordinates":[3.3637,6.5217]},"geometry_name":"geom","properties":{"geometry_type":"POINT","latitude":6.521735008411459,"longitude":3.3636943628565703,"global_id":"11c7fa58-a920-495c-82cd-1397d1fa9ac4","name":"Alakara Police Station","ward_code":"LASMUN05","source":"GRID","ward_name":"Idi-Araba","lga_code":"25014","lga_name":"Mushin","state_code":"LA","state_name":"Lagos"}},{"type":"Feature","id":"sv_fc_poi_police_station.fid--3786de59_170540c0e31_3bf4","geometry":{"type":"Point","coordinates":[3.3244,6.506]},"geometry_name":"geom","properties":{"geometry_type":"POINT","latitude":6.506024467491186,"longitude":3.324385681049279,"global_id":"971cacf7-3fa5-4f88-8816-3b59c6c5c1cb","name":"Cele Police Post Itire","ward_code":"LASMUN13","source":"GRID","ward_name":"Odo Eran/Ogunlana","lga_code":"25014","lga_name":"Mushin","state_code":"LA","state_name":"Lagos"}},{"type":"Feature","id":"sv_fc_poi_police_station.fid--3786de59_170540c0e31_3bf5","geometry":{"type":"Point","coordinates":[3.1704,6.5008]},"geometry_name":"geom","properties":{"geometry_type":"POINT","latitude":6.500809284380609,"longitude":3.1703841190172284,"global_id":"f58b4d2a-9fb5-4b22-b7de-8a036b2bcdef","name":"NPF Divisional HQ Isasi Town","ward_code":"LASOJO05","source":"GRID","ward_name":"Igbo-Elerin","lga_code":"25015","lga_name":"Ojo","state_code":"LA","state_name":"Lagos"}},{"type":"Feature","id":"sv_fc_poi_police_station.fid--3786de59_170540c0e31_3bf6","geometry":{"type":"Point","coordinates":[3.1253,6.4961]},"geometry_name":"geom","properties":{"geometry_type":"POINT","latitude":6.496115148540465,"longitude":3.125291483556089,"global_id":"c5db8cb8-00f8-42a9-aaaa-85c93c41444c","name":"Ijanikin Divisional Police Station","ward_code":"LASOJO06","source":"GRID","ward_name":"Ijanikin","lga_code":"25015","lga_name":"Ojo","state_code":"LA","state_name":"Lagos"}},{"type":"Feature","id":"sv_fc_poi_police_station.fid--3786de59_170540c0e31_3bf7","geometry":{"type":"Point","coordinates":[3.1373,6.4599]},"geometry_name":"geom","properties":{"geometry_type":"POINT","latitude":6.459860671713543,"longitude":3.1372971291109777,"global_id":"db2ad0a2-71d2-45cb-bbc5-2e809b4b3fa6","name":"Shibiri Ekunpa Police Station","ward_code":"LASOJO07","source":"GRID","ward_name":"Ilogbo- Elegba","lga_code":"25015","lga_name":"Ojo","state_code":"LA","state_name":"Lagos"}},{"type":"Feature","id":"sv_fc_poi_police_station.fid--3786de59_170540c0e31_3bf8","geometry":{"type":"Point","coordinates":[3.2266,6.4453]},"geometry_name":"geom","properties":{"geometry_type":"POINT","latitude":6.4452739788882205,"longitude":3.2265556894607363,"global_id":"6d43c2f8-0e8e-4fa8-b837-52496ae8e81c","name":"Tedi Town Plover Station","ward_code":"LASOJO08","source":"GRID","ward_name":"Ira","lga_code":"25015","lga_name":"Ojo","state_code":"LA","state_name":"Lagos"}},{"type":"Feature","id":"sv_fc_poi_police_station.fid--3786de59_170540c0e31_3bf9","geometry":{"type":"Point","coordinates":[3.2294,6.4595]},"geometry_name":"geom","properties":{"geometry_type":"POINT","latitude":6.459519459079727,"longitude":3.229433202540064,"global_id":"848f0864-14b2-4b38-9cd5-9c7282c8d707","name":"Onireke Police Station","ward_code":"LASOJO08","source":"GRID","ward_name":"Ira","lga_code":"25015","lga_name":"Ojo","state_code":"LA","state_name":"Lagos"}},{"type":"Feature","id":"sv_fc_poi_police_station.fid--3786de59_170540c0e31_3bfa","geometry":{"type":"Point","coordinates":[3.1871,6.472]},"geometry_name":"geom","properties":{"geometry_type":"POINT","latitude":6.472023210951522,"longitude":3.1870580016822916,"global_id":"b9d29579-adfa-42f3-a4ac-e76de24fcca0","name":"Okokomaiko","ward_code":"LASOJO10","source":"GRID","ward_name":"Kemberi","lga_code":"25015","lga_name":"Ojo","state_code":"LA","state_name":"Lagos"}},{"type":"Feature","id":"sv_fc_poi_police_station.fid--3786de59_170540c0e31_3bfb","geometry":{"type":"Point","coordinates":[3.2058,6.4566]},"geometry_name":"geom","properties":{"geometry_type":"POINT","latitude":6.456596980570513,"longitude":3.2057604362856567,"global_id":"70853bdf-0b9e-4dde-b425-0ea79a427910","name":"NPF Divisional HQ Ojo","ward_code":"LASOJO11","source":"GRID","ward_name":"Ojo Town","lga_code":"25015","lga_name":"Ojo","state_code":"LA","state_name":"Lagos"}},{"type":"Feature","id":"sv_fc_poi_police_station.fid--3786de59_170540c0e31_3bfc","geometry":{"type":"Point","coordinates":[3.1948,6.4701]},"geometry_name":"geom","properties":{"geometry_type":"POINT","latitude":6.470088106316907,"longitude":3.194801151905048,"global_id":"6f6bd55b-48f2-49a2-83d9-7afbbd42b237","name":"New Layout Police Station","ward_code":"LASOJO12","source":"GRID","ward_name":"Okokomaiko","lga_code":"25015","lga_name":"Ojo","state_code":"LA","state_name":"Lagos"}},{"type":"Feature","id":"sv_fc_poi_police_station.fid--3786de59_170540c0e31_3bfd","geometry":{"type":"Point","coordinates":[3.168,6.4625]},"geometry_name":"geom","properties":{"geometry_type":"POINT","latitude":6.4625447991422265,"longitude":3.1680103578096954,"global_id":"7bf305c9-154c-42b8-ac1c-39ea4c217897","name":"Ajangbadi Police Station","ward_code":"LASOJO14","source":"GRID","ward_name":"Sabo-Oniba","lga_code":"25015","lga_name":"Ojo","state_code":"LA","state_name":"Lagos"}},{"type":"Feature","id":"sv_fc_poi_police_station.fid--3786de59_170540c0e31_3bfe","geometry":{"type":"Point","coordinates":[3.2948,6.5257]},"geometry_name":"geom","properties":{"geometry_type":"POINT","latitude":6.525705610984776,"longitude":3.294752486920673,"global_id":"c46c63d3-d663-49d2-a398-b96f982607f9","name":"Ashamu Police Station","ward_code":"LASOIO03","source":"GRID","ward_name":"Ailegun","lga_code":"25016","lga_name":"Oshodi/Isolo","state_code":"LA","state_name":"Lagos"}},{"type":"Feature","id":"sv_fc_poi_police_station.fid--3786de59_170540c0e31_3bff","geometry":{"type":"Point","coordinates":[3.3229,6.549]},"geometry_name":"geom","properties":{"geometry_type":"POINT","latitude":6.549015026158653,"longitude":3.3228539181594554,"global_id":"e2105d38-9fbd-4560-a3f8-d029d8c1b1d1","name":"Divisional Headquarters Ajao Estate","ward_code":"LASOIO04","source":"GRID","ward_name":"Ajao Estate","lga_code":"25016","lga_name":"Oshodi/Isolo","state_code":"LA","state_name":"Lagos"}},{"type":"Feature","id":"sv_fc_poi_police_station.fid--3786de59_170540c0e31_3c00","geometry":{"type":"Point","coordinates":[3.3202,6.5651]},"geometry_name":"geom","properties":{"geometry_type":"POINT","latitude":6.565126666666667,"longitude":3.32023,"global_id":"174cdab0-438c-4041-8e47-8a04eb122e53","name":"Airport Police Command","ward_code":"LASOIO12","source":"GRID","ward_name":"Ilamoshe","lga_code":"25016","lga_name":"Oshodi/Isolo","state_code":"LA","state_name":"Lagos"}},{"type":"Feature","id":"sv_fc_poi_police_station.fid--3786de59_170540c0e31_3c01","geometry":{"type":"Point","coordinates":[3.3206,6.5616]},"geometry_name":"geom","properties":{"geometry_type":"POINT","latitude":6.561554310539264,"longitude":3.3205966050136215,"global_id":"e63c2e17-a2d7-4ca7-9d89-31117a57baa3","name":"Area 'A' West Airport Command HQ","ward_code":"LASOIO12","source":"GRID","ward_name":"Ilamoshe","lga_code":"25016","lga_name":"Oshodi/Isolo","state_code":"LA","state_name":"Lagos"}},{"type":"Feature","id":"sv_fc_poi_police_station.fid--3786de59_170540c0e31_3c02","geometry":{"type":"Point","coordinates":[3.3402,6.5764]},"geometry_name":"geom","properties":{"geometry_type":"POINT","latitude":6.576429738413462,"longitude":3.3402375392379806,"global_id":"906cce39-d6a6-4ca4-9412-5872965d35eb","name":"Shogunle Police Station","ward_code":"LASOIO20","source":"GRID","ward_name":"Shogunle","lga_code":"25016","lga_name":"Oshodi/Isolo","state_code":"LA","state_name":"Lagos"}},{"type":"Feature","id":"sv_fc_poi_police_station.fid--3786de59_170540c0e31_3c03","geometry":{"type":"Point","coordinates":[3.3906,6.534]},"geometry_name":"geom","properties":{"geometry_type":"POINT","latitude":6.534046038858976,"longitude":3.3906035435268436,"global_id":"3d5e6f4d-985e-4feb-a9f9-a28da7c0ffd3","name":"Baroda Divisional Police Statoin","ward_code":"LASSMU14","source":"GRID","ward_name":"Owode /Orile Bariga","lga_code":"25017","lga_name":"Shomolu","state_code":"LA","state_name":"Lagos"}},{"type":"Feature","id":"sv_fc_poi_police_station.fid--3786de59_170540c0e31_3c04","geometry":{"type":"Point","coordinates":[3.3724,6.545]},"geometry_name":"geom","properties":{"geometry_type":"POINT","latitude":6.545025916477164,"longitude":3.3723818497772435,"global_id":"e1c3eb97-9b4f-41d5-9bcb-01f323506f76","name":"Pedro Divisional Police Station","ward_code":"LASSMU15","source":"GRID","ward_name":"Pedro/Gbagada","lga_code":"25017","lga_name":"Shomolu","state_code":"LA","state_name":"Lagos"}},{"type":"Feature","id":"sv_fc_poi_police_station.fid--3786de59_170540c0e31_3c05","geometry":{"type":"Point","coordinates":[3.3295,6.4851]},"geometry_name":"geom","properties":{"geometry_type":"POINT","latitude":6.485060890318509,"longitude":3.329505715619391,"global_id":"8b3428cc-792e-40d5-b8d3-851a016f03e7","name":"Sanya Police Station 98","ward_code":"LASSUE03","source":"GRID","ward_name":"Airways","lga_code":"25018","lga_name":"Surulere","state_code":"LA","state_name":"Lagos"}},{"type":"Feature","id":"sv_fc_poi_police_station.fid--3786de59_170540c0e31_3c06","geometry":{"type":"Point","coordinates":[3.3256,6.4882]},"geometry_name":"geom","properties":{"geometry_type":"POINT","latitude":6.488205305492388,"longitude":3.325568821936298,"global_id":"edb1e0a9-7c6a-4a1c-9bb5-2041a14c9261","name":"Erekusu Police Post Salami Street","ward_code":"LASSUE03","source":"GRID","ward_name":"Airways","lga_code":"25018","lga_name":"Surulere","state_code":"LA","state_name":"Lagos"}},{"type":"Feature","id":"sv_fc_poi_police_station.fid--3786de59_170540c0e31_3c07","geometry":{"type":"Point","coordinates":[3.3642,6.5026]},"geometry_name":"geom","properties":{"geometry_type":"POINT","latitude":6.502640227016426,"longitude":3.364190663302083,"global_id":"dbf5fb6f-6880-4d5a-9d09-242ce570ac3a","name":"Anti Kidnapping Police Post Hogan Basset Crescent","ward_code":"LASSUE05","source":"GRID","ward_name":"Aralile","lga_code":"25018","lga_name":"Surulere","state_code":"LA","state_name":"Lagos"}},{"type":"Feature","id":"sv_fc_poi_police_station.fid--3786de59_170540c0e31_3c08","geometry":{"type":"Point","coordinates":[3.3232,6.4694]},"geometry_name":"geom","properties":{"geometry_type":"POINT","latitude":6.469359545967148,"longitude":3.3231519198417474,"global_id":"6c3e8d6c-f396-4cf9-9678-a0797255164a","name":"Amuwo Odofin Police Station","ward_code":"LASSUE09","source":"GRID","ward_name":"Coker","lga_code":"25018","lga_name":"Surulere","state_code":"LA","state_name":"Lagos"}},{"type":"Feature","id":"sv_fc_poi_police_station.fid--3786de59_170540c0e31_3c09","geometry":{"type":"Point","coordinates":[3.358,6.4892]},"geometry_name":"geom","properties":{"geometry_type":"POINT","latitude":6.489209205904647,"longitude":3.357954310539262,"global_id":"0b8cec06-33a2-4308-85d9-3e818229636f","name":"Bode Thomas Police Station","ward_code":"LASSUE11","source":"GRID","ward_name":"Iponri / Eric Moore","lga_code":"25018","lga_name":"Surulere","state_code":"LA","state_name":"Lagos"}},{"type":"Feature","id":"sv_fc_poi_police_station.fid--3786de59_170540c0e31_3c0a","geometry":{"type":"Point","coordinates":[3.3409,6.4934]},"geometry_name":"geom","properties":{"geometry_type":"POINT","latitude":6.4933835164439095,"longitude":3.340945436285657,"global_id":"823e51b1-b5bc-4658-ac37-319057ac6290","name":"Aguda Police Station","ward_code":"LASSUE13","source":"GRID","ward_name":"Jinadu Aiyetoro","lga_code":"25018","lga_name":"Surulere","state_code":"LA","state_name":"Lagos"}},{"type":"Feature","id":"sv_fc_poi_police_station.fid--3786de59_170540c0e31_3c0b","geometry":{"type":"Point","coordinates":[3.3486,6.4927]},"geometry_name":"geom","properties":{"geometry_type":"POINT","latitude":6.492677460762019,"longitude":3.3486126700312493,"global_id":"12f85d11-ca15-45bf-bb29-45541d78cbe5","name":"F SARS Annex Bode Thomas","ward_code":"LASSUE13","source":"GRID","ward_name":"Jinadu Aiyetoro","lga_code":"25018","lga_name":"Surulere","state_code":"LA","state_name":"Lagos"}},{"type":"Feature","id":"sv_fc_poi_police_station.fid--3786de59_170540c0e31_3c0c","geometry":{"type":"Point","coordinates":[3.3708,6.5091]},"geometry_name":"geom","properties":{"geometry_type":"POINT","latitude":6.509127181428286,"longitude":3.3707635080324523,"global_id":"e28971d9-ae1d-41a8-bf6a-e4e5f569f743","name":"Tejuosho Police Post","ward_code":"LASSUE14","source":"GRID","ward_name":"Mosafejo Ojuelegba","lga_code":"25018","lga_name":"Surulere","state_code":"LA","state_name":"Lagos"}},{"type":"Feature","id":"sv_fc_poi_police_station.fid--3786de59_170540c0e31_3c0d","geometry":{"type":"Point","coordinates":[3.3258,6.4961]},"geometry_name":"geom","properties":{"geometry_type":"POINT","latitude":6.496060898729969,"longitude":3.3257933594919873,"global_id":"c8304b99-0984-4a7e-b840-e02185d77ed7","name":"Ijeshatado Police Station","ward_code":"LASSUE17","source":"GRID","ward_name":"Odo-Olowu","lga_code":"25018","lga_name":"Surulere","state_code":"LA","state_name":"Lagos"}},{"type":"Feature","id":"sv_fc_poi_police_station.fid--3786de59_170540c0e31_3c0e","geometry":{"type":"Point","coordinates":[3.3763,6.5271]},"geometry_name":"geom","properties":{"geometry_type":"POINT","latitude":6.527099485238382,"longitude":3.376328124064102,"global_id":"b24568ec-e382-461c-8d38-870a9636b644","name":"Basua Police Station","ward_code":"LASLMD01","source":"GRID","ward_name":"Abule Ijesha","lga_code":"25019","lga_name":"Lagos Mainland","state_code":"LA","state_name":"Lagos"}},{"type":"Feature","id":"sv_fc_poi_police_station.fid--3786de59_170540c0e31_3c0f","geometry":{"type":"Point","coordinates":[3.3781,6.5054]},"geometry_name":"geom","properties":{"geometry_type":"POINT","latitude":6.505394258221957,"longitude":3.37812050635016,"global_id":"6373d690-dc7a-43b2-9269-951e04fad84d","name":"Sabo Police Station","ward_code":"LASLMD05","source":"GRID","ward_name":"Alagomeji","lga_code":"25019","lga_name":"Lagos Mainland","state_code":"LA","state_name":"Lagos"}},{"type":"Feature","id":"sv_fc_poi_police_station.fid--3786de59_170540c0e31_3c10","geometry":{"type":"Point","coordinates":[3.376,6.4978]},"geometry_name":"geom","properties":{"geometry_type":"POINT","latitude":6.497800000000001,"longitude":3.3760149999999998,"global_id":"31ca308b-b620-418b-a8e4-80a780f8e7a5","name":"Nigerian Railway Hospital Police Station","ward_code":"LASLMD11","source":"GRID","ward_name":"Iponri/Olaleye","lga_code":"25019","lga_name":"Lagos Mainland","state_code":"LA","state_name":"Lagos"}},{"type":"Feature","id":"sv_fc_poi_police_station.fid--3786de59_170540c0e31_3c11","geometry":{"type":"Point","coordinates":[3.3857,6.4954]},"geometry_name":"geom","properties":{"geometry_type":"POINT","latitude":6.495387312221554,"longitude":3.3857148953653846,"global_id":"187ab5fb-384a-4ee2-aeba-70848ac653f4","name":"Makoko Police Post","ward_code":"LASLMD12","source":"GRID","ward_name":"Makoko","lga_code":"25019","lga_name":"Lagos Mainland","state_code":"LA","state_name":"Lagos"}},{"type":"Feature","id":"sv_fc_poi_police_station.fid--3786de59_170540c0e31_3c12","geometry":{"type":"Point","coordinates":[3.3778,6.4841]},"geometry_name":"geom","properties":{"geometry_type":"POINT","latitude":6.484066457397435,"longitude":3.3777883940620996,"global_id":"1a9b72c9-ee8a-4f7f-972d-164cce02b53b","name":"Odaliki Police Station","ward_code":"LASLMD13","source":"GRID","ward_name":"Ojo-Oniyun","lga_code":"25019","lga_name":"Lagos Mainland","state_code":"LA","state_name":"Lagos"}},{"type":"Feature","id":"sv_fc_poi_police_station.fid--3786de59_170540c0e31_3c13","geometry":{"type":"Point","coordinates":[3.3891,6.4905]},"geometry_name":"geom","properties":{"geometry_type":"POINT","latitude":6.490493534191105,"longitude":3.389131841365786,"global_id":"990d79bb-2bb5-4838-836e-38c976364f40","name":"Okobaba Police Post","ward_code":"LASLMD14","source":"GRID","ward_name":"Okobaba","lga_code":"25019","lga_name":"Lagos Mainland","state_code":"LA","state_name":"Lagos"}},{"type":"Feature","id":"sv_fc_poi_police_station.fid--3786de59_170540c0e31_3c14","geometry":{"type":"Point","coordinates":[3.403,6.4419]},"geometry_name":"geom","properties":{"geometry_type":"POINT","latitude":6.441921962823318,"longitude":3.402997024476362,"global_id":"05c4af0c-b25a-4c1b-9f62-bacdd9600332","name":"Zone 2 Police Officer Mess Police Mini Market","ward_code":"LASLID04","source":"GRID","ward_name":"Araromi Odo","lga_code":"25020","lga_name":"Lagos Island","state_code":"LA","state_name":"Lagos"}},{"type":"Feature","id":"sv_fc_poi_police_station.fid--3786de59_170540c0e31_3c15","geometry":{"type":"Point","coordinates":[3.3865,6.4643]},"geometry_name":"geom","properties":{"geometry_type":"POINT","latitude":6.464254441332532,"longitude":3.3864619544118586,"global_id":"551e1211-0b58-4668-b1b8-6457cbda8aa4","name":"Ebute- Ero Police Station","ward_code":"LASLID08","source":"GRID","ward_name":"Idumoyingbo","lga_code":"25020","lga_name":"Lagos Island","state_code":"LA","state_name":"Lagos"}},{"type":"Feature","id":"sv_fc_poi_police_station.fid--3786de59_170540c0e31_3c16","geometry":{"type":"Point","coordinates":[3.407,6.4492]},"geometry_name":"geom","properties":{"geometry_type":"POINT","latitude":6.449228019429488,"longitude":3.4069640751113783,"global_id":"05b45f69-99b9-4fe3-a8b0-1909990cdc26","name":"Kam Salem House Nigeria Police Hqts Annex","ward_code":"LASLID12","source":"GRID","ward_name":"Lafiaji","lga_code":"25020","lga_name":"Lagos Island","state_code":"LA","state_name":"Lagos"}},{"type":"Feature","id":"sv_fc_poi_police_station.fid--3786de59_170540c0e31_3c17","geometry":{"type":"Point","coordinates":[3.3805,6.4555]},"geometry_name":"geom","properties":{"geometry_type":"POINT","latitude":6.455474624443109,"longitude":3.380480156951923,"global_id":"2cd956f0-9bcf-4f5f-ab77-3b33ad24fc4e","name":"Marina Leventis Police Station","ward_code":"LASLID15","source":"GRID","ward_name":"Oke-Olowogbowo","lga_code":"25020","lga_name":"Lagos Island","state_code":"LA","state_name":"Lagos"}},{"type":"Feature","id":"sv_fc_poi_police_station.fid--3786de59_170540c0e31_3c18","geometry":{"type":"Point","coordinates":[3.3976,6.4562]},"geometry_name":"geom","properties":{"geometry_type":"POINT","latitude":6.456210104634616,"longitude":3.397585820254006,"global_id":"26ec3b0d-32b3-44fc-879d-6c1c9ee52cec","name":"Central Police Station Adeniji Adele","ward_code":"LASLID16","source":"GRID","ward_name":"Okepopo East","lga_code":"25020","lga_name":"Lagos Island","state_code":"LA","state_name":"Lagos"}}],"crs":{"type":"name","properties":{"name":"urn:ogc:def:crs:EPSG::4326"}}}