{"type":"FeatureCollection","totalFeatures":18,"features":[{"type":"Feature","id":"sv_fc_poi_post_office.fid--3786de59_170540c0e31_4ff6","geometry":{"type":"Point","coordinates":[3.324,6.6237]},"geometry_name":"geom","properties":{"geometry_type":"POINT","latitude":6.623678925734046,"longitude":3.3240391548765817,"global_id":"65c0e49d-d3fb-4c26-b113-bc5f78a381f5","name":"Nigerian Postal Service 3","ward_code":"LASAGG13","source":"GRID","ward_name":"Sango","lga_code":"25001","lga_name":"Agege","state_code":"LA","state_name":"Lagos"}},{"type":"Feature","id":"sv_fc_poi_post_office.fid--3786de59_170540c0e31_4ff7","geometry":{"type":"Point","coordinates":[3.3429,6.4568]},"geometry_name":"geom","properties":{"geometry_type":"POINT","latitude":6.456789775972683,"longitude":3.342896267685127,"global_id":"28de3d1c-6fd6-418a-b126-e19fab85ba13","name":"Nigerian Postal Service Ajegunle","ward_code":"LASATO02","source":"GRID","ward_name":"Ajegunle","lga_code":"25002","lga_name":"Ajeromi/Ifelodun","state_code":"LA","state_name":"Lagos"}},{"type":"Feature","id":"sv_fc_poi_post_office.fid--3786de59_170540c0e31_4ff8","geometry":{"type":"Point","coordinates":[3.3407,6.465]},"geometry_name":"geom","properties":{"geometry_type":"POINT","latitude":6.465006409495406,"longitude":3.340661667623044,"global_id":"c3cdddc6-554a-4a9c-8e34-315313678c98","name":"Nigerian Postal Service 2","ward_code":"LASATO05","source":"GRID","ward_name":"Amukoko","lga_code":"25002","lga_name":"Ajeromi/Ifelodun","state_code":"LA","state_name":"Lagos"}},{"type":"Feature","id":"sv_fc_poi_post_office.fid--3786de59_170540c0e31_4ff9","geometry":{"type":"Point","coordinates":[3.2693,6.5515]},"geometry_name":"geom","properties":{"geometry_type":"POINT","latitude":6.551514858189719,"longitude":3.2692666415070764,"global_id":"5940056d-6129-4fce-a598-17b60787d03f","name":"Nipost Ikotun","ward_code":"LASAMO20","source":"GRID","ward_name":"Egbe-Liasu","lga_code":"25003","lga_name":"Alimosho","state_code":"LA","state_name":"Lagos"}},{"type":"Feature","id":"sv_fc_poi_post_office.fid--3786de59_170540c0e31_4ffa","geometry":{"type":"Point","coordinates":[3.2576,6.609]},"geometry_name":"geom","properties":{"geometry_type":"POINT","latitude":6.609004379526942,"longitude":3.257573673344673,"global_id":"92a25683-0688-42d5-888e-e3fa6a9383d6","name":"Ipaja Post Office","ward_code":"LASAMO26","source":"GRID","ward_name":"Ipaja","lga_code":"25003","lga_name":"Alimosho","state_code":"LA","state_name":"Lagos"}},{"type":"Feature","id":"sv_fc_poi_post_office.fid--3786de59_170540c0e31_4ffb","geometry":{"type":"Point","coordinates":[3.3404,6.5918]},"geometry_name":"geom","properties":{"geometry_type":"POINT","latitude":6.591813902869132,"longitude":3.340420967241122,"global_id":"39194247-e41c-4f94-93a4-1f47cbaa582a","name":"Nigerian Postal Service 1","ward_code":"LASIKA05","source":"GRID","ward_name":"Anifowoshe","lga_code":"25011","lga_name":"Ikeja","state_code":"LA","state_name":"Lagos"}},{"type":"Feature","id":"sv_fc_poi_post_office.fid--3786de59_170540c0e31_4ffc","geometry":{"type":"Point","coordinates":[3.5038,6.6129]},"geometry_name":"geom","properties":{"geometry_type":"POINT","latitude":6.612904773726596,"longitude":3.503751355640427,"global_id":"1257424f-9bea-4684-98dd-b25264c1040c","name":"Ikorodu Post Office","ward_code":"LASIKU02","source":"GRID","ward_name":"Aga/Ijomu","lga_code":"25012","lga_name":"Ikorodu","state_code":"LA","state_name":"Lagos"}},{"type":"Feature","id":"sv_fc_poi_post_office.fid--3786de59_170540c0e31_4ffd","geometry":{"type":"Point","coordinates":[3.5232,6.5932]},"geometry_name":"geom","properties":{"geometry_type":"POINT","latitude":6.593171809433325,"longitude":3.5231801985343925,"global_id":"d3ec1a04-db4b-4da1-90ed-a702e72865e8","name":"Igbogbo Post Office","ward_code":"LASIKU02","source":"GRID","ward_name":"Aga/Ijomu","lga_code":"25012","lga_name":"Ikorodu","state_code":"LA","state_name":"Lagos"}},{"type":"Feature","id":"sv_fc_poi_post_office.fid--3786de59_170540c0e31_4ffe","geometry":{"type":"Point","coordinates":[3.5909,6.5644]},"geometry_name":"geom","properties":{"geometry_type":"POINT","latitude":6.564380340344672,"longitude":3.5909323199503342,"global_id":"283c5081-2721-4fda-9ada-6a96f8b4b1fe","name":"Ijede Lcda Post Office","ward_code":"LASIKU25","source":"GRID","ward_name":"Oke-Oyinbo/ Aiyetoro","lga_code":"25012","lga_name":"Ikorodu","state_code":"LA","state_name":"Lagos"}},{"type":"Feature","id":"sv_fc_poi_post_office.fid--3786de59_170540c0e31_4fff","geometry":{"type":"Point","coordinates":[3.1185,6.4963]},"geometry_name":"geom","properties":{"geometry_type":"POINT","latitude":6.49633915200745,"longitude":3.1185497453645397,"global_id":"692fbe95-07a2-4b83-8e03-a68c68d254b8","name":"Otto Ijanikin Post Office","ward_code":"LASOJO06","source":"GRID","ward_name":"Ijanikin","lga_code":"25015","lga_name":"Ojo","state_code":"LA","state_name":"Lagos"}},{"type":"Feature","id":"sv_fc_poi_post_office.fid--3786de59_170540c0e31_5000","geometry":{"type":"Point","coordinates":[3.1194,6.4618]},"geometry_name":"geom","properties":{"geometry_type":"POINT","latitude":6.461763730068785,"longitude":3.1194181344656076,"global_id":"1dff9f8d-ecb1-4c21-a7a5-fa6f9db8251c","name":"Imude Modern Post Office","ward_code":"LASOJO07","source":"GRID","ward_name":"Ilogbo- Elegba","lga_code":"25015","lga_name":"Ojo","state_code":"LA","state_name":"Lagos"}},{"type":"Feature","id":"sv_fc_poi_post_office.fid--3786de59_170540c0e31_5001","geometry":{"type":"Point","coordinates":[3.3326,6.5481]},"geometry_name":"geom","properties":{"geometry_type":"POINT","latitude":6.548119040805313,"longitude":3.3326484486943126,"global_id":"bc55ecb0-b2d2-4c23-8076-af4868f8a581","name":"Fedex","ward_code":"LASOIO04","source":"GRID","ward_name":"Ajao Estate","lga_code":"25016","lga_name":"Oshodi/Isolo","state_code":"LA","state_name":"Lagos"}},{"type":"Feature","id":"sv_fc_poi_post_office.fid--3786de59_170540c0e31_5002","geometry":{"type":"Point","coordinates":[3.3268,6.4875]},"geometry_name":"geom","properties":{"geometry_type":"POINT","latitude":6.4875247731035515,"longitude":3.326791667,"global_id":"5b9ee97d-3d8b-428d-b950-d075cc179235","name":"Nigerian Postal Service Ijeshatado","ward_code":"LASSUE03","source":"GRID","ward_name":"Airways","lga_code":"25018","lga_name":"Surulere","state_code":"LA","state_name":"Lagos"}},{"type":"Feature","id":"sv_fc_poi_post_office.fid--3786de59_170540c0e31_5003","geometry":{"type":"Point","coordinates":[3.3593,6.5033]},"geometry_name":"geom","properties":{"geometry_type":"POINT","latitude":6.503305538879066,"longitude":3.3592753119826164,"global_id":"d7055750-83ac-4a44-a0d1-9af5bd9e2f3f","name":"Nigerian Postal Services Surulere","ward_code":"LASSUE10","source":"GRID","ward_name":"Gbaja Obele-Odan","lga_code":"25018","lga_name":"Surulere","state_code":"LA","state_name":"Lagos"}},{"type":"Feature","id":"sv_fc_poi_post_office.fid--3786de59_170540c0e31_5004","geometry":{"type":"Point","coordinates":[3.3806,6.4883]},"geometry_name":"geom","properties":{"geometry_type":"POINT","latitude":6.488298389724112,"longitude":3.3805987017067287,"global_id":"7181766a-4a82-435f-9ccb-80ba46750a83","name":"Nipost Ebute Meta","ward_code":"LASLMD09","source":"GRID","ward_name":"Freeman/Glover","lga_code":"25019","lga_name":"Lagos Mainland","state_code":"LA","state_name":"Lagos"}},{"type":"Feature","id":"sv_fc_poi_post_office.fid--3786de59_170540c0e31_5005","geometry":{"type":"Point","coordinates":[3.3783,6.5062]},"geometry_name":"geom","properties":{"geometry_type":"POINT","latitude":6.506217855337224,"longitude":3.378329915536876,"global_id":"ff25e669-ccd5-4712-b96d-7af890c97d2d","name":"Yaba Post Office","ward_code":"LASLMD15","source":"GRID","ward_name":"Onike/Oyadiran","lga_code":"25019","lga_name":"Lagos Mainland","state_code":"LA","state_name":"Lagos"}},{"type":"Feature","id":"sv_fc_poi_post_office.fid--3786de59_170540c0e31_5006","geometry":{"type":"Point","coordinates":[3.4043,6.4475]},"geometry_name":"geom","properties":{"geometry_type":"POINT","latitude":6.447521157106034,"longitude":3.404342147531909,"global_id":"6f354fce-89b2-4caa-abf2-c56d77c7c22a","name":"Nigeria Post Office","ward_code":"LASLID04","source":"GRID","ward_name":"Araromi Odo","lga_code":"25020","lga_name":"Lagos Island","state_code":"LA","state_name":"Lagos"}},{"type":"Feature","id":"sv_fc_poi_post_office.fid--3786de59_170540c0e31_5007","geometry":{"type":"Point","coordinates":[3.3942,6.458]},"geometry_name":"geom","properties":{"geometry_type":"POINT","latitude":6.458023786169853,"longitude":3.3942044917290786,"global_id":"141db5fe-1392-4e80-ade7-397a985cbf2a","name":"Anikantamo Post Office","ward_code":"LASLID16","source":"GRID","ward_name":"Okepopo East","lga_code":"25020","lga_name":"Lagos Island","state_code":"LA","state_name":"Lagos"}}],"crs":{"type":"name","properties":{"name":"urn:ogc:def:crs:EPSG::4326"}}}